{"address": {"address1": "961 Ferntree Gully Road", "address2": null, "city": "Wheelers Hill", "country": "Australia", "latitude": -37.9073618, "longitude": 145.1980863, "province": "Victoria", "provinceCode": "VIC", "zip": "3150"}}
{"address": {"address1": "962 Albany Highway", "address2": null, "city": "East Victoria Park", "country": "Australia", "latitude": -31.9898744, "longitude": 115.9081296, "province": "Western Australia", "provinceCode": "WA", "zip": "6101"}}
{"address": {"address1": "624 Ann Street", "address2": null, "city": "Fortitude Valley", "country": "Australia", "latitude": -27.4590761, "longitude": 153.0340284, "province": "Queensland", "provinceCode": "QLD", "zip": "4006"}}
{"address": {"address1": "433 Inkerman Street", "address2": null, "city": "Saint Kilda East", "country": "Australia", "latitude": -37.867067, "longitude": 145.0029501, "province": "Victoria", "provinceCode": "VIC", "zip": "3183"}}
{"address": {"address1": "677 Boyanup-Picton Road", "address2": null, "city": "Crooked Brook", "country": "Australia", "latitude": -33.4275293, "longitude": 115.7543014, "province": "Western Australia", "provinceCode": "WA", "zip": "6236"}}
{"address": {"address1": "686 Mowbray Road West", "address2": null, "city": "Lane Cove North", "country": "Australia", "latitude": -33.8040301, "longitude": 151.1522235, "province": "New South Wales", "provinceCode": "NSW", "zip": "2066"}}
{"address": {"address1": "3074", "address2": null, "city": "Thomastown", "country": "Australia", "latitude": -37.6837819, "longitude": 145.0107588, "province": "Victoria", "provinceCode": "VIC", "zip": "3074"}}
{"address": {"address1": "703 Wellington Road", "address2": null, "city": "Wheelers Hill", "country": "Australia", "latitude": -37.923261, "longitude": 145.202099, "province": "Victoria", "provinceCode": "VIC", "zip": "3150"}}
{"address": {"address1": "507 Liverpool Road", "address2": null, "city": "Strathfield", "country": "Australia", "latitude": -33.8904517, "longitude": 151.0801849, "province": "New South Wales", "provinceCode": "NSW", "zip": "2135"}}
{"address": {"address1": "721 Old Cleveland Road", "address2": null, "city": "Carina", "country": "Australia", "latitude": -27.4947577, "longitude": 153.0854213, "province": "Queensland", "provinceCode": "QLD", "zip": "4152"}}
{"address": {"address1": "628 Flinders Street", "address2": null, "city": "Melbourne", "country": "Australia", "latitude": -37.8211466, "longitude": 144.9535501, "province": "Victoria", "provinceCode": "VIC", "zip": "3000"}}
{"address": {"address1": "5373 Gelantipy Road", "address2": null, "city": "Wulgulmerang East", "country": "Australia", "latitude": -37.1116226, "longitude": 148.2493091, "province": "Victoria", "provinceCode": "VIC", "zip": "3885"}}
{"address": {"address1": "804 Canterbury Road", "address2": null, "city": "Roselands", "country": "Australia", "latitude": -33.9258223, "longitude": 151.0866682, "province": "New South Wales", "provinceCode": "NSW", "zip": "2196"}}
{"address": {"address1": "915 Albany Highway", "address2": null, "city": "East Victoria Park", "country": "Australia", "latitude": -31.98795729999999, "longitude": 115.9048056, "province": "Western Australia", "provinceCode": "WA", "zip": "6101"}}
{"address": {"address1": "620 Seventeen Mile Rocks Road", "address2": null, "city": "Sinnamon Park", "country": "Australia", "latitude": -27.5380829, "longitude": 152.9492474, "province": "Queensland", "provinceCode": "QLD", "zip": "4073"}}
{"address": {"address1": "142 Abercrombie Street", "address2": null, "city": "Redfern", "country": "Australia", "latitude": -33.8890463, "longitude": 151.1995441, "province": "New South Wales", "provinceCode": "NSW", "zip": "2016"}}
{"address": {"address1": "723 The Horsley Drive", "address2": null, "city": "Smithfield", "country": "Australia", "latitude": -33.852273, "longitude": 150.9365066, "province": "New South Wales", "provinceCode": "NSW", "zip": "2164"}}
{"address": {"address1": "2782", "address2": null, "city": "Wentworth Falls", "country": "Australia", "latitude": -33.7206345, "longitude": 150.3790612, "province": "New South Wales", "provinceCode": "NSW", "zip": "2782"}}
{"address": {"address1": "733 Bourke Street", "address2": null, "city": "Docklands", "country": "Australia", "latitude": -37.8184713, "longitude": 144.9492817, "province": "Victoria", "provinceCode": "VIC", "zip": "3008"}}
{"address": {"address1": "787 Ingham Road", "address2": null, "city": "Mount Saint John", "country": "Australia", "latitude": -19.2601624, "longitude": 146.7260262, "province": "Queensland", "provinceCode": "QLD", "zip": "4818"}}
{"address": {"address1": "684-700 Frankston - Dandenong Road", "address2": null, "city": "Carrum Downs", "country": "Australia", "latitude": -38.08735490000001, "longitude": 145.1813093, "province": "Victoria", "provinceCode": "VIC", "zip": "3201"}}
{"address": {"address1": "765 Burwood Road", "address2": null, "city": "Hawthorn East", "country": "Australia", "latitude": -37.8243212, "longitude": 145.0508568, "province": "Victoria", "provinceCode": "VIC", "zip": "3123"}}
{"address": {"address1": "54 Benjamin", "address2": "4", "city": "Belconnen", "country": "Australia", "latitude": -35.24034839999999, "longitude": 149.067174, "province": "Australian Capital Territory", "provinceCode": "ACT", "zip": "2617"}}
{"address": {"address1": "859 Glen Huntly Road", "address2": null, "city": "Caulfield", "country": "Australia", "latitude": -37.8869603, "longitude": 145.0239537, "province": "Victoria", "provinceCode": "VIC", "zip": "3162"}}
{"address": {"address1": "848 Ballarat Road", "address2": null, "city": "Deer Park", "country": "Australia", "latitude": -37.7684453, "longitude": 144.7692273, "province": "Victoria", "provinceCode": "VIC", "zip": "3023"}}
{"address": {"address1": "828 Elizabeth Street", "address2": null, "city": "Waterloo", "country": "Australia", "latitude": -33.9016057, "longitude": 151.2061917, "province": "New South Wales", "provinceCode": "NSW", "zip": "2017"}}
{"address": {"address1": "829 Pennant Hills Road", "address2": null, "city": "Carlingford", "country": "Australia", "latitude": -33.7783001, "longitude": 151.0524268, "province": "New South Wales", "provinceCode": "NSW", "zip": "2118"}}
{"address": {"address1": "521 Kent Street", "address2": null, "city": "Sydney", "country": "Australia", "latitude": -33.8747924, "longitude": 151.2050061, "province": "New South Wales", "provinceCode": "NSW", "zip": "2000"}}
{"address": {"address1": "785 Duncans Road", "address2": null, "city": "Werribee South", "country": "Australia", "latitude": -37.94377, "longitude": 144.708137, "province": "Victoria", "provinceCode": "VIC", "zip": "3030"}}
{"address": {"address1": "714-716 Princes Highway", "address2": null, "city": "Springvale", "country": "Australia", "latitude": -37.9440697, "longitude": 145.1706692, "province": "Victoria", "provinceCode": "VIC", "zip": "3171"}}
{"address": {"address1": "309 Kent Street", "address2": null, "city": "Sydney", "country": "Australia", "latitude": -33.8673934, "longitude": 151.2039483, "province": "New South Wales", "provinceCode": "NSW", "zip": "2000"}}
{"address": {"address1": "550 Stanley Street", "address2": null, "city": "South Brisbane", "country": "Australia", "latitude": -27.4845623, "longitude": 153.0286012, "province": "Queensland", "provinceCode": "QLD", "zip": "4101"}}
{"address": {"address1": "888 Korean Fried Chicken delivery Gordon Northshore \ud55c\uad6d\uce58\ud0a8 \u97e9\u5f0f\u70b8\u9e21 \ubc30\ub2ec", "address2": "Shop 1", "city": "Gordon", "country": "Australia", "latitude": -33.75205, "longitude": 151.1484782, "province": "New South Wales", "provinceCode": "NSW", "zip": "2072"}}
{"address": {"address1": "231 Harbour Esplanade", "address2": null, "city": "Docklands", "country": "Australia", "latitude": -37.8133783, "longitude": 144.9429197, "province": "Victoria", "provinceCode": "VIC", "zip": "3008"}}
{"address": {"address1": "626-628 Liverpool Road", "address2": null, "city": "Strathfield South", "country": "Australia", "latitude": -33.8871362, "longitude": 151.0713421, "province": "New South Wales", "provinceCode": "NSW", "zip": "2136"}}
{"address": {"address1": "979 Medical Centre", "address2": null, "city": "Bentleigh East", "country": "Australia", "latitude": -37.9231597, "longitude": 145.0773313, "province": "Victoria", "provinceCode": "VIC", "zip": "3165"}}
{"address": {"address1": "425 Burwood Highway", "address2": null, "city": "Wantirna South", "country": "Australia", "latitude": -37.8686173, "longitude": 145.239624, "province": "Victoria", "provinceCode": "VIC", "zip": "3152"}}
{"address": {"address1": "986 Stanley Street East", "address2": null, "city": "East Brisbane", "country": "Australia", "latitude": -27.4880155, "longitude": 153.0471141, "province": "Queensland", "provinceCode": "QLD", "zip": "4169"}}
{"address": {"address1": "140 William Street", "address2": null, "city": "Melbourne", "country": "Australia", "latitude": -37.81595739999999, "longitude": 144.9587447, "province": "Victoria", "provinceCode": "VIC", "zip": "3000"}}
{"address": {"address1": "5039", "address2": null, "city": "Melrose Park", "country": "Australia", "latitude": -34.9844595, "longitude": 138.5737662, "province": "South Australia", "provinceCode": "SA", "zip": "5039"}}
{"address": {"address1": "658 Newcastle Street", "address2": null, "city": "Leederville", "country": "Australia", "latitude": -31.9376801, "longitude": 115.8428878, "province": "Western Australia", "provinceCode": "WA", "zip": "6007"}}
{"address": {"address1": "994 Glen Huntly Road", "address2": null, "city": "Caulfield South", "country": "Australia", "latitude": -37.8886313, "longitude": 145.0327905, "province": "Victoria", "provinceCode": "VIC", "zip": "3162"}}
{"address": {"address1": "236 La Trobe Street", "address2": null, "city": "Melbourne", "country": "Australia", "latitude": -37.8098249, "longitude": 144.9624192, "province": "Victoria", "provinceCode": "VIC", "zip": "3000"}}
{"address": {"address1": "784-796 Springvale Road", "address2": null, "city": "Braeside", "country": "Australia", "latitude": -38.000708, "longitude": 145.142349, "province": "Victoria", "provinceCode": "VIC", "zip": "3195"}}
{"address": {"address1": "240 Saint Georges Terrace", "address2": null, "city": "Perth", "country": "Australia", "latitude": -31.9528276, "longitude": 115.8515124, "province": "Western Australia", "provinceCode": "WA", "zip": "6000"}}
{"address": {"address1": "736 Rathdowne Street", "address2": null, "city": "Carlton North", "country": "Australia", "latitude": -37.77994109999999, "longitude": 144.9737683, "province": "Victoria", "provinceCode": "VIC", "zip": "3054"}}
{"address": {"address1": "995 Mount Alexander Road", "address2": null, "city": "Essendon", "country": "Australia", "latitude": -37.7482382, "longitude": 144.912046, "province": "Victoria", "provinceCode": "VIC", "zip": "3040"}}
{"address": {"address1": "956 Mount Alexander Road", "address2": null, "city": "Essendon", "country": "Australia", "latitude": -37.7540221, "longitude": 144.9172774, "province": "Victoria", "provinceCode": "VIC", "zip": "3040"}}
{"address": {"address1": "970 Riversdale Road", "address2": null, "city": "Surrey Hills", "country": "Australia", "latitude": -37.8360839, "longitude": 145.097402, "province": "Victoria", "provinceCode": "VIC", "zip": "3127"}}
{"address": {"address1": "651 Chapel Street", "address2": null, "city": "South Yarra", "country": "Australia", "latitude": -37.8374167, "longitude": 144.9957466, "province": "Victoria", "provinceCode": "VIC", "zip": "3141"}}
{"address": {"address1": "275 Wickham Street", "address2": null, "city": "Fortitude Valley", "country": "Australia", "latitude": -27.456099, "longitude": 153.0352722, "province": "Queensland", "provinceCode": "QLD", "zip": "4006"}}
{"address": {"address1": "81-86 Courallie Avenue", "address2": null, "city": "Homebush West", "country": "Australia", "latitude": -33.8628376, "longitude": 151.0637356, "province": "New South Wales", "provinceCode": "NSW", "zip": "2140"}}
{"address": {"address1": "243 Bradman Street", "address2": null, "city": "Acacia Ridge", "country": "Australia", "latitude": -27.5864005, "longitude": 153.0367923, "province": "Queensland", "provinceCode": "QLD", "zip": "4110"}}
{"address": {"address1": "1770 Lagoons Central Apartment Resort", "address2": null, "city": "Agnes Water", "country": "Australia", "latitude": -24.1961617, "longitude": 151.8949255, "province": "Queensland", "provinceCode": "QLD", "zip": "4677"}}
{"address": {"address1": "922 Frankford Road", "address2": null, "city": "Glengarry", "country": "Australia", "latitude": -41.3435098, "longitude": 146.8648418, "province": "Tasmania", "provinceCode": "TAS", "zip": "7275"}}
{"address": {"address1": "648 Lonsdale Street", "address2": null, "city": "Melbourne", "country": "Australia", "latitude": -37.8143692, "longitude": 144.953388, "province": "Victoria", "provinceCode": "VIC", "zip": "3000"}}
{"address": {"address1": "1969 Gold Coast Highway", "address2": null, "city": "Burleigh Heads", "country": "Australia", "latitude": -28.0776619, "longitude": 153.4462257, "province": "Queensland", "provinceCode": "QLD", "zip": "4220"}}
{"address": {"address1": "833 Southport Nerang Road", "address2": null, "city": "Nerang", "country": "Australia", "latitude": -27.9847727, "longitude": 153.3387233, "province": "Queensland", "provinceCode": "QLD", "zip": "4211"}}
{"address": {"address1": "358 George Street", "address2": null, "city": "Brisbane City", "country": "Australia", "latitude": -27.4691831, "longitude": 153.0214034, "province": "Queensland", "provinceCode": "QLD", "zip": "4000"}}
{"address": {"address1": "749 MacArthur Avenue Central", "address2": null, "city": "Pinkenba", "country": "Australia", "latitude": -27.4331808, "longitude": 153.1137739, "province": "Queensland", "provinceCode": "QLD", "zip": "4008"}}
{"address": {"address1": "1816 Bakehouse", "address2": null, "city": "Ballarat Central", "country": "Australia", "latitude": -37.56078979999999, "longitude": 143.856768, "province": "Victoria", "provinceCode": "VIC", "zip": "3350"}}
{"address": {"address1": "113 Exhibition Street", "address2": null, "city": "Melbourne", "country": "Australia", "latitude": -37.81288929999999, "longitude": 144.9707227, "province": "Victoria", "provinceCode": "VIC", "zip": "3000"}}
{"address": {"address1": "241 Oxford Street", "address2": null, "city": "Bondi Junction", "country": "Australia", "latitude": -33.8918557, "longitude": 151.25195, "province": "New South Wales", "provinceCode": "NSW", "zip": "2022"}}
{"address": {"address1": "1063 Burwood Highway", "address2": null, "city": "Ferntree Gully", "country": "Australia", "latitude": -37.8879421, "longitude": 145.2941341, "province": "Victoria", "provinceCode": "VIC", "zip": "3156"}}
{"address": {"address1": "938 North Road", "address2": null, "city": "Bentleigh East", "country": "Australia", "latitude": -37.9071882, "longitude": 145.0635986, "province": "Victoria", "provinceCode": "VIC", "zip": "3165"}}
{"address": {"address1": "493 Victoria Street", "address2": null, "city": "West Melbourne", "country": "Australia", "latitude": -37.8047326, "longitude": 144.9435075, "province": "Victoria", "provinceCode": "VIC", "zip": "3003"}}
{"address": {"address1": "789 Korean BBQ Restaurant Green Square", "address2": "Tenancy 4", "city": "Zetland", "country": "Australia", "latitude": -33.9051701, "longitude": 151.2037255, "province": "New South Wales", "provinceCode": "NSW", "zip": "2017"}}
{"address": {"address1": "389 Pitt Street", "address2": null, "city": "Sydney", "country": "Australia", "latitude": -33.8769645, "longitude": 151.2074949, "province": "New South Wales", "provinceCode": "NSW", "zip": "2000"}}
{"address": {"address1": "618 Barbell Adelaide", "address2": "1", "city": "Pooraka", "country": "Australia", "latitude": -34.8191184, "longitude": 138.6369781, "province": "South Australia", "provinceCode": "SA", "zip": "5095"}}
{"address": {"address1": "590 Little Bourke Street", "address2": null, "city": "Melbourne", "country": "Australia", "latitude": -37.8153853, "longitude": 144.9546881, "province": "Victoria", "provinceCode": "VIC", "zip": "3000"}}
{"address": {"address1": "353 Little Collins Street", "address2": null, "city": "Melbourne", "country": "Australia", "latitude": -37.8156004, "longitude": 144.9629205, "province": "Victoria", "provinceCode": "VIC", "zip": "3000"}}
{"address": {"address1": "546 Waverley Road", "address2": null, "city": "Glen Waverley", "country": "Australia", "latitude": -37.8871585, "longitude": 145.1465941, "province": "Victoria", "provinceCode": "VIC", "zip": "3150"}}
{"address": {"address1": "3051", "address2": null, "city": "North Melbourne", "country": "Australia", "latitude": -37.7983816, "longitude": 144.9419122, "province": "Victoria", "provinceCode": "VIC", "zip": "3051"}}
{"address": {"address1": "445 Victoria Avenue", "address2": null, "city": "Chatswood", "country": "Australia", "latitude": -33.796182, "longitude": 151.1819246, "province": "New South Wales", "provinceCode": "NSW", "zip": "2067"}}
{"address": {"address1": "688 Bourke Street", "address2": null, "city": "Melbourne", "country": "Australia", "latitude": -37.8168076, "longitude": 144.9536375, "province": "Victoria", "provinceCode": "VIC", "zip": "3000"}}
{"address": {"address1": "146 Lodge Backpacker Accommodation", "address2": null, "city": "Donnybrook", "country": "Australia", "latitude": -33.5786244, "longitude": 115.8294154, "province": "Western Australia", "provinceCode": "WA", "zip": "6239"}}
{"address": {"address1": "923 Whitfords Avenue", "address2": null, "city": "Woodvale", "country": "Australia", "latitude": -31.7999705, "longitude": 115.7936207, "province": "Western Australia", "provinceCode": "WA", "zip": "6026"}}
{"address": {"address1": "519 Waverley Road", "address2": null, "city": "Mount Waverley", "country": "Australia", "latitude": -37.8862455, "longitude": 145.1450866, "province": "Victoria", "provinceCode": "VIC", "zip": "3149"}}
{"address": {"address1": "343 Little Collins Street", "address2": null, "city": "Melbourne", "country": "Australia", "latitude": -37.815454, "longitude": 144.96343, "province": "Victoria", "provinceCode": "VIC", "zip": "3000"}}
{"address": {"address1": "269 Wickham Street", "address2": null, "city": "Fortitude Valley", "country": "Australia", "latitude": -27.4565844, "longitude": 153.0352409, "province": "Queensland", "provinceCode": "QLD", "zip": "4006"}}
{"address": {"address1": "15cenchi Japanese Cheesecake Darling Square (Previously 15centimeters)", "address2": "Shop T07", "city": "Haymarket", "country": "Australia", "latitude": -33.8779498, "longitude": 151.2022124, "province": "New South Wales", "provinceCode": "NSW", "zip": "2000"}}
{"address": {"address1": "683 Beenleigh Redland Bay Road", "address2": null, "city": "Carbrook", "country": "Australia", "latitude": -27.6809662, "longitude": 153.2507694, "province": "Queensland", "provinceCode": "QLD", "zip": "4130"}}
{"address": {"address1": "99 Acres Bangalow Retreat", "address2": null, "city": "Bangalow", "country": "Australia", "latitude": -28.683162, "longitude": 153.5167478, "province": "New South Wales", "provinceCode": "NSW", "zip": "2479"}}
{"address": {"address1": "495 Burwood Highway", "address2": null, "city": "Vermont South", "country": "Australia", "latitude": -37.8551476, "longitude": 145.1826033, "province": "Victoria", "provinceCode": "VIC", "zip": "3133"}}
{"address": {"address1": "838 Collins Street", "address2": null, "city": "Docklands", "country": "Australia", "latitude": -37.8213428, "longitude": 144.9451296, "province": "Victoria", "provinceCode": "VIC", "zip": "3008"}}
{"address": {"address1": "944 Old Cleveland Road", "address2": null, "city": "Carina", "country": "Australia", "latitude": -27.4953568, "longitude": 153.0946341, "province": "Queensland", "provinceCode": "QLD", "zip": "4152"}}
{"address": {"address1": "398 Pitt Street", "address2": null, "city": "Sydney", "country": "Australia", "latitude": -33.878577, "longitude": 151.2075965, "province": "New South Wales", "provinceCode": "NSW", "zip": "2000"}}
{"address": {"address1": "355 Great Eastern Highway", "address2": null, "city": "Redcliffe", "country": "Australia", "latitude": -31.9343117, "longitude": 115.9386463, "province": "Western Australia", "provinceCode": "WA", "zip": "6104"}}
{"address": {"address1": "750 Main North Road", "address2": null, "city": "Gepps Cross", "country": "Australia", "latitude": -34.8371037, "longitude": 138.6033969, "province": "South Australia", "provinceCode": "SA", "zip": "5094"}}
{"address": {"address1": "131 Lonsdale Street", "address2": null, "city": "Melbourne", "country": "Australia", "latitude": -37.810779, "longitude": 144.9685513, "province": "Victoria", "provinceCode": "VIC", "zip": "3000"}}
{"address": {"address1": "1000 Steps Kokoda Track Outdoor Gym", "address2": null, "city": "Tremont", "country": "Australia", "latitude": -37.8876319, "longitude": 145.3178765, "province": "Victoria", "provinceCode": "VIC", "zip": "3785"}}
{"address": {"address1": "413 Francis Street", "address2": null, "city": "Brooklyn", "country": "Australia", "latitude": -37.8173573, "longitude": 144.8529762, "province": "Victoria", "provinceCode": "VIC", "zip": "3012"}}
{"address": {"address1": "897 Albany Highway", "address2": null, "city": "East Victoria Park", "country": "Australia", "latitude": -31.9869, "longitude": 115.90422, "province": "Western Australia", "provinceCode": "WA", "zip": "6101"}}
{"address": {"address1": "320 Victoria Parade", "address2": null, "city": "East Melbourne", "country": "Australia", "latitude": -37.8094213, "longitude": 144.9824819, "province": "Victoria", "provinceCode": "VIC", "zip": "3002"}}
{"address": {"address1": "996 Sydney Road Massage", "address2": null, "city": "Coburg North", "country": "Australia", "latitude": -37.72052499999999, "longitude": 144.963388, "province": "Victoria", "provinceCode": "VIC", "zip": "3058"}}
{"address": {"address1": "446 Collins Street", "address2": null, "city": "Melbourne", "country": "Australia", "latitude": -37.8173143, "longitude": 144.9595058, "province": "Victoria", "provinceCode": "VIC", "zip": "3000"}}
{"address": {"address1": "698 Inkerman Road", "address2": null, "city": "Caulfield North", "country": "Australia", "latitude": -37.8691257, "longitude": 145.0246641, "province": "Victoria", "provinceCode": "VIC", "zip": "3161"}}
{"address": {"address1": "365 Days Medical Centre Kidman Park", "address2": null, "city": "Kidman Park", "country": "Australia", "latitude": -34.9058008, "longitude": 138.5322233, "province": "South Australia", "provinceCode": "SA", "zip": "5025"}}
{"address": {"address1": "467 Plummer Street", "address2": null, "city": "Port Melbourne", "country": "Australia", "latitude": -37.8315235, "longitude": 144.9293598, "province": "Victoria", "provinceCode": "VIC", "zip": "3207"}}
{"address": {"address1": "885 Albany Highway", "address2": null, "city": "East Victoria Park", "country": "Australia", "latitude": -31.9863999, "longitude": 115.9037955, "province": "Western Australia", "provinceCode": "WA", "zip": "6101"}}
{"address": {"address1": "761 Station Street", "address2": null, "city": "Box Hill North", "country": "Australia", "latitude": -37.813439, "longitude": 145.1245705, "province": "Victoria", "provinceCode": "VIC", "zip": "3129"}}
{"address": {"address1": "613 Great North Road", "address2": null, "city": "Abbotsford", "country": "Australia", "latitude": -33.8443283, "longitude": 151.1275308, "province": "New South Wales", "provinceCode": "NSW", "zip": "2046"}}
{"address": {"address1": "864cars.com.au - Brisbane's Best Used Car Sales", "address2": "1", "city": "Hamilton", "country": "Australia", "latitude": -27.4354392, "longitude": 153.0766839, "province": "Queensland", "provinceCode": "QLD", "zip": "4007"}}
{"address": {"address1": "560 Lonsdale Street", "address2": null, "city": "Melbourne", "country": "Australia", "latitude": -37.8140313, "longitude": 144.9556025, "province": "Victoria", "provinceCode": "VIC", "zip": "3000"}}
{"address": {"address1": "290 Macaulay Road", "address2": null, "city": "North Melbourne", "country": "Australia", "latitude": -37.7946786, "longitude": 144.9367079, "province": "Victoria", "provinceCode": "VIC", "zip": "3051"}}
{"address": {"address1": "466 George Street", "address2": null, "city": "Brisbane City", "country": "Australia", "latitude": -27.4672336, "longitude": 153.0195403, "province": "Queensland", "provinceCode": "QLD", "zip": "4000"}}
{"address": {"address1": "354 Eastern Valley Way", "address2": null, "city": "Chatswood", "country": "Australia", "latitude": -33.787666, "longitude": 151.2015247, "province": "New South Wales", "provinceCode": "NSW", "zip": "2067"}}
{"address": {"address1": "675 Gardeners Road", "address2": null, "city": "Mascot", "country": "Australia", "latitude": -33.9201678, "longitude": 151.1851587, "province": "New South Wales", "provinceCode": "NSW", "zip": "2020"}}
{"address": {"address1": "855-891 Springvale Road", "address2": null, "city": "Keysborough", "country": "Australia", "latitude": -37.9952992, "longitude": 145.1441531, "province": "Victoria", "provinceCode": "VIC", "zip": "3173"}}
{"address": {"address1": "6063", "address2": null, "city": "Bennett Springs", "country": "Australia", "latitude": -31.8689096, "longitude": 115.9408868, "province": "Western Australia", "provinceCode": "WA", "zip": "6063"}}
{"address": {"address1": "369 Ann Street", "address2": null, "city": "Brisbane City", "country": "Australia", "latitude": -27.4642692, "longitude": 153.0293175, "province": "Queensland", "provinceCode": "QLD", "zip": "4000"}}
{"address": {"address1": "609 Old Northern Road", "address2": null, "city": "Glenhaven", "country": "Australia", "latitude": -33.7090719, "longitude": 151.011626, "province": "New South Wales", "provinceCode": "NSW", "zip": "2156"}}
{"address": {"address1": "1345 The Horsley Drive", "address2": null, "city": "Wetherill Park", "country": "Australia", "latitude": -33.8517538, "longitude": 150.8841074, "province": "New South Wales", "provinceCode": "NSW", "zip": "2164"}}
{"address": {"address1": "653 George Street", "address2": null, "city": "Haymarket", "country": "Australia", "latitude": -33.87902589999999, "longitude": 151.2052948, "province": "New South Wales", "provinceCode": "NSW", "zip": "2000"}}
{"address": {"address1": "391 Park Road", "address2": null, "city": "Regents Park", "country": "Australia", "latitude": -33.8777381, "longitude": 151.024404, "province": "New South Wales", "provinceCode": "NSW", "zip": "2143"}}
{"address": {"address1": "3043", "address2": null, "city": "Gladstone Park", "country": "Australia", "latitude": -37.7044206, "longitude": 144.8786231, "province": "Victoria", "provinceCode": "VIC", "zip": "3043"}}
{"address": {"address1": "726 Langhorne Creek Road", "address2": null, "city": "Belvidere", "country": "Australia", "latitude": -35.2973636, "longitude": 138.9602231, "province": "South Australia", "provinceCode": "SA", "zip": "5255"}}
{"address": {"address1": "903 Princes Highway Service Road", "address2": null, "city": "Malvern East", "country": "Australia", "latitude": -37.8762391, "longitude": 145.0460796, "province": "Victoria", "provinceCode": "VIC", "zip": "3145"}}
{"address": {"address1": "1915 Lanzhou Beef Noodles Burwood", "address2": null, "city": "Burwood", "country": "Australia", "latitude": -33.8776535, "longitude": 151.103739, "province": "New South Wales", "provinceCode": "NSW", "zip": "2134"}}
{"address": {"address1": "835 Glen Huntly Road", "address2": null, "city": "Caulfield", "country": "Australia", "latitude": -37.8869237, "longitude": 145.0233079, "province": "Victoria", "provinceCode": "VIC", "zip": "3162"}}
{"address": {"address1": "565 Camberwell Road", "address2": null, "city": "Camberwell", "country": "Australia", "latitude": -37.8444832, "longitude": 145.0721236, "province": "Victoria", "provinceCode": "VIC", "zip": "3124"}}
{"address": {"address1": "991 Prestige Rhodes", "address2": null, "city": "Rhodes", "country": "Australia", "latitude": -33.8255073, "longitude": 151.0916731, "province": "New South Wales", "provinceCode": "NSW", "zip": "2138"}}
{"address": {"address1": "932 Riversdale Road", "address2": null, "city": "Surrey Hills", "country": "Australia", "latitude": -37.8357143, "longitude": 145.0943608, "province": "Victoria", "provinceCode": "VIC", "zip": "3127"}}
{"address": {"address1": "363 Adelaide Street", "address2": null, "city": "Brisbane City", "country": "Australia", "latitude": -27.4649139, "longitude": 153.0300068, "province": "Queensland", "provinceCode": "QLD", "zip": "4000"}}
{"address": {"address1": "1924 RiverFront Steakhouse", "address2": null, "city": "Murray Bridge", "country": "Australia", "latitude": -35.119294, "longitude": 139.2826908, "province": "South Australia", "provinceCode": "SA", "zip": "5253"}}
{"address": {"address1": "710 SPLIT BOWLING", "address2": null, "city": "Fairfield", "country": "Australia", "latitude": -33.875, "longitude": 150.9533333, "province": "New South Wales", "provinceCode": "NSW", "zip": "2165"}}
{"address": {"address1": "790 on George Backpackers", "address2": null, "city": "Haymarket", "country": "Australia", "latitude": -33.8813948, "longitude": 151.2049147, "province": "New South Wales", "provinceCode": "NSW", "zip": "2000"}}
{"address": {"address1": "731 Whitehorse Road", "address2": null, "city": "Mont Albert", "country": "Australia", "latitude": -37.8157398, "longitude": 145.1067254, "province": "Victoria", "provinceCode": "VIC", "zip": "3127"}}
{"address": {"address1": "818 Dental", "address2": null, "city": "Armadale", "country": "Australia", "latitude": -37.8548969, "longitude": 145.0148419, "province": "Victoria", "provinceCode": "VIC", "zip": "3143"}}
{"address": {"address1": "571-583 High Street", "address2": null, "city": "Epping", "country": "Australia", "latitude": -37.6533365, "longitude": 145.0186263, "province": "Victoria", "provinceCode": "VIC", "zip": "3076"}}
{"address": {"address1": "754-768 Princes Highway", "address2": null, "city": "Springvale", "country": "Australia", "latitude": -37.9416664, "longitude": 145.1676016, "province": "Victoria", "provinceCode": "VIC", "zip": "3171"}}
{"address": {"address1": "352 Northbourne Avenue", "address2": null, "city": "Dickson", "country": "Australia", "latitude": -35.254361, "longitude": 149.13362, "province": "Australian Capital Territory", "provinceCode": "ACT", "zip": "2602"}}
{"address": {"address1": "380 Melbourne", "address2": null, "city": "Melbourne", "country": "Australia", "latitude": -37.8117996, "longitude": 144.961057, "province": "Victoria", "provinceCode": "VIC", "zip": "3000"}}
{"address": {"address1": "426 Church Street", "address2": null, "city": "Parramatta", "country": "Australia", "latitude": -33.8071072, "longitude": 151.0060387, "province": "New South Wales", "provinceCode": "NSW", "zip": "2150"}}
{"address": {"address1": "734 Heatherton Road", "address2": null, "city": "Springvale South", "country": "Australia", "latitude": -37.960819, "longitude": 145.1376481, "province": "Victoria", "provinceCode": "VIC", "zip": "3172"}}
{"address": {"address1": "509 Saint Kilda Road", "address2": null, "city": "Melbourne", "country": "Australia", "latitude": -37.84415, "longitude": 144.9793362, "province": "Victoria", "provinceCode": "VIC", "zip": "3004"}}
{"address": {"address1": "907 Albany Highway", "address2": null, "city": "East Victoria Park", "country": "Australia", "latitude": -31.9875994, "longitude": 115.9046439, "province": "Western Australia", "provinceCode": "WA", "zip": "6101"}}
{"address": {"address1": "615 Little Lonsdale Street", "address2": null, "city": "Melbourne", "country": "Australia", "latitude": -37.8139857, "longitude": 144.9532276, "province": "Victoria", "provinceCode": "VIC", "zip": "3000"}}
{"address": {"address1": "5233", "address2": null, "city": "Forreston", "country": "Australia", "latitude": -34.8074268, "longitude": 138.8900659, "province": "South Australia", "provinceCode": "SA", "zip": "5233"}}
{"address": {"address1": "811 Princes Highway", "address2": null, "city": "Maddens Plains", "country": "Australia", "latitude": -34.3031483, "longitude": 150.9098398, "province": "New South Wales", "provinceCode": "NSW", "zip": "2508"}}
{"address": {"address1": "841 Hunter Street", "address2": null, "city": "Newcastle West", "country": "Australia", "latitude": -32.9226462, "longitude": 151.7534136, "province": "New South Wales", "provinceCode": "NSW", "zip": "2303"}}
{"address": {"address1": "6173", "address2": null, "city": "Secret Harbour", "country": "Australia", "latitude": -32.4051251, "longitude": 115.7634366, "province": "Western Australia", "provinceCode": "WA", "zip": "6173"}}
{"address": {"address1": "729 Mountain Highway", "address2": null, "city": "Bayswater", "country": "Australia", "latitude": -37.8407563, "longitude": 145.2655517, "province": "Victoria", "provinceCode": "VIC", "zip": "3153"}}
{"address": {"address1": "526 Albany Highway", "address2": null, "city": "Victoria Park", "country": "Australia", "latitude": -31.97777409999999, "longitude": 115.8991287, "province": "Western Australia", "provinceCode": "WA", "zip": "6100"}}
{"address": {"address1": "2147", "address2": null, "city": "Lalor Park", "country": "Australia", "latitude": -33.7632936, "longitude": 150.9365521, "province": "New South Wales", "provinceCode": "NSW", "zip": "2147"}}
{"address": {"address1": "941 Mount Alexander Road", "address2": null, "city": "Essendon", "country": "Australia", "latitude": -37.750865, "longitude": 144.914049, "province": "Victoria", "provinceCode": "VIC", "zip": "3040"}}
{"address": {"address1": "460 Lonsdale Street", "address2": null, "city": "Melbourne", "country": "Australia", "latitude": -37.8130807, "longitude": 144.9582151, "province": "Victoria", "provinceCode": "VIC", "zip": "3000"}}
{"address": {"address1": "5121", "address2": null, "city": "Penfield", "country": "Australia", "latitude": -34.6634406, "longitude": 138.6288642, "province": "South Australia", "provinceCode": "SA", "zip": "5121"}}
{"address": {"address1": "2210", "address2": null, "city": "Peakhurst Heights", "country": "Australia", "latitude": -33.9566557, "longitude": 151.0529578, "province": "New South Wales", "provinceCode": "NSW", "zip": "2210"}}
{"address": {"address1": "3787", "address2": null, "city": "Sassafras", "country": "Australia", "latitude": -37.8645935, "longitude": 145.353065, "province": "Victoria", "provinceCode": "VIC", "zip": "3787"}}
{"address": {"address1": "510 Saint Pauls Terrace", "address2": null, "city": "Bowen Hills", "country": "Australia", "latitude": -27.4517008, "longitude": 153.0354542, "province": "Queensland", "provinceCode": "QLD", "zip": "4006"}}
{"address": {"address1": "249 Middleborough Road", "address2": null, "city": "Box Hill South", "country": "Australia", "latitude": -37.8371809, "longitude": 145.1330137, "province": "Victoria", "provinceCode": "VIC", "zip": "3128"}}
{"address": {"address1": "367 Ruthven Street", "address2": null, "city": "Toowoomba City", "country": "Australia", "latitude": -27.5596147, "longitude": 151.9532482, "province": "Queensland", "provinceCode": "QLD", "zip": "4350"}}
{"address": {"address1": "870 Princes Highway Service Road", "address2": null, "city": "Springvale", "country": "Australia", "latitude": -37.9354995, "longitude": 145.1597719, "province": "Victoria", "provinceCode": "VIC", "zip": "3171"}}
{"address": {"address1": "3088", "address2": null, "city": "Saint Helena", "country": "Australia", "latitude": -37.698595, "longitude": 145.1099967, "province": "Victoria", "provinceCode": "VIC", "zip": "3088"}}
{"address": {"address1": "80 A'Beckett Street", "address2": null, "city": "Melbourne", "country": "Australia", "latitude": -37.809045, "longitude": 144.9611087, "province": "Victoria", "provinceCode": "VIC", "zip": "3000"}}
{"address": {"address1": "176 Wellington Parade", "address2": null, "city": "East Melbourne", "country": "Australia", "latitude": -37.816062, "longitude": 144.984237, "province": "Victoria", "provinceCode": "VIC", "zip": "3002"}}
{"address": {"address1": "652espresso", "address2": "Shop2", "city": "Pacific Paradise", "country": "Australia", "latitude": -26.6186204, "longitude": 153.0773592, "province": "Queensland", "provinceCode": "QLD", "zip": "4564"}}
{"address": {"address1": "659 Chambers Flat Road", "address2": null, "city": "Chambers Flat", "country": "Australia", "latitude": -27.7254158, "longitude": 153.089754, "province": "Queensland", "provinceCode": "QLD", "zip": "4133"}}
{"address": {"address1": "310 King Street", "address2": null, "city": "Melbourne", "country": "Australia", "latitude": -37.8128973, "longitude": 144.9544832, "province": "Victoria", "provinceCode": "VIC", "zip": "3000"}}
{"address": {"address1": "306 Coward Street", "address2": null, "city": "Mascot", "country": "Australia", "latitude": -33.9252345, "longitude": 151.1756877, "province": "New South Wales", "provinceCode": "NSW", "zip": "2020"}}
{"address": {"address1": "68 Leveson Street", "address2": null, "city": "North Melbourne", "country": "Australia", "latitude": -37.8024072, "longitude": 144.9515043, "province": "Victoria", "provinceCode": "VIC", "zip": "3051"}}
{"address": {"address1": "900 Ann Street", "address2": null, "city": "Fortitude Valley", "country": "Australia", "latitude": -27.4545559, "longitude": 153.038582, "province": "Queensland", "provinceCode": "QLD", "zip": "4006"}}
{"address": {"address1": "643 Kessels Road", "address2": null, "city": "Upper Mount Gravatt", "country": "Australia", "latitude": -27.5613456, "longitude": 153.0786988, "province": "Queensland", "provinceCode": "QLD", "zip": "4122"}}
{"address": {"address1": "164 Great Western Highway", "address2": null, "city": "Westmead", "country": "Australia", "latitude": -33.8191772, "longitude": 150.9873323, "province": "New South Wales", "provinceCode": "NSW", "zip": "2145"}}
{"address": {"address1": "2773 Cafe", "address2": null, "city": "Glenbrook", "country": "Australia", "latitude": -33.7674064, "longitude": 150.621542, "province": "New South Wales", "provinceCode": "NSW", "zip": "2773"}}
{"address": {"address1": "935 Kingsford Smith Drive", "address2": null, "city": "Eagle Farm", "country": "Australia", "latitude": -27.4311633, "longitude": 153.0924948, "province": "Queensland", "provinceCode": "QLD", "zip": "4009"}}
{"address": {"address1": "3165", "address2": null, "city": "Bentleigh East", "country": "Australia", "latitude": -37.9174873, "longitude": 145.0658766, "province": "Victoria", "provinceCode": "VIC", "zip": "3165"}}
{"address": {"address1": "632 Saint Kilda Road", "address2": null, "city": "Melbourne", "country": "Australia", "latitude": -37.8541899, "longitude": 144.9815427, "province": "Victoria", "provinceCode": "VIC", "zip": "3004"}}
{"address": {"address1": "797 Pennant Hills Road", "address2": null, "city": "Carlingford", "country": "Australia", "latitude": -33.7757149, "longitude": 151.0517069, "province": "New South Wales", "provinceCode": "NSW", "zip": "2118"}}
{"address": {"address1": "195 Old Geelong Road", "address2": null, "city": "Hoppers Crossing", "country": "Australia", "latitude": -37.8770345, "longitude": 144.7111966, "province": "Victoria", "provinceCode": "VIC", "zip": "3029"}}
{"address": {"address1": "469 La Trobe Street", "address2": null, "city": "Melbourne", "country": "Australia", "latitude": -37.8123229, "longitude": 144.955211, "province": "Victoria", "provinceCode": "VIC", "zip": "3000"}}
{"address": {"address1": "751 Nicholson Street", "address2": null, "city": "Carlton North", "country": "Australia", "latitude": -37.78173, "longitude": 144.9774257, "province": "Victoria", "provinceCode": "VIC", "zip": "3054"}}
{"address": {"address1": "372 Spencer Street", "address2": null, "city": "West Melbourne", "country": "Australia", "latitude": -37.8116036, "longitude": 144.9510741, "province": "Victoria", "provinceCode": "VIC", "zip": "3003"}}
{"address": {"address1": "879 Duncans Road", "address2": null, "city": "Werribee South", "country": "Australia", "latitude": -37.9512124, "longitude": 144.7066913, "province": "Victoria", "provinceCode": "VIC", "zip": "3030"}}
{"address": {"address1": "662 Blackburn Road", "address2": null, "city": "Notting Hill", "country": "Australia", "latitude": -37.9063755, "longitude": 145.1425697, "province": "Victoria", "provinceCode": "VIC", "zip": "3168"}}
{"address": {"address1": "636 St Kilda Road", "address2": null, "city": "St Kilda", "country": "Australia", "latitude": -37.8548151, "longitude": 144.981622, "province": "Victoria", "provinceCode": "VIC", "zip": "3004"}}
{"address": {"address1": "563 Riversdale Road", "address2": null, "city": "Camberwell", "country": "Australia", "latitude": -37.8314052, "longitude": 145.0600617, "province": "Victoria", "provinceCode": "VIC", "zip": "3124"}}
{"address": {"address1": "591 Carlisle Avenue", "address2": null, "city": "Minchinbury", "country": "Australia", "latitude": -33.7816639, "longitude": 150.8151141, "province": "New South Wales", "provinceCode": "NSW", "zip": "2770"}}
{"address": {"address1": "3173", "address2": null, "city": "Keysborough", "country": "Australia", "latitude": -38.0042683, "longitude": 145.1706992, "province": "Victoria", "provinceCode": "VIC", "zip": "3173"}}
{"address": {"address1": "207 Kent Street", "address2": null, "city": "Sydney", "country": "Australia", "latitude": -33.8637726, "longitude": 151.2037167, "province": "New South Wales", "provinceCode": "NSW", "zip": "2000"}}
{"address": {"address1": "998 Henry Lawson Drive", "address2": null, "city": "Padstow Heights", "country": "Australia", "latitude": -33.9648728, "longitude": 151.0396531, "province": "New South Wales", "provinceCode": "NSW", "zip": "2211"}}
{"address": {"address1": "179 Alfred Street", "address2": null, "city": "Fortitude Valley", "country": "Australia", "latitude": -27.4569818, "longitude": 153.0318821, "province": "Queensland", "provinceCode": "QLD", "zip": "4006"}}
{"address": {"address1": "252 Swanston Street", "address2": null, "city": "Melbourne", "country": "Australia", "latitude": -37.8121517, "longitude": 144.9651729, "province": "Victoria", "provinceCode": "VIC", "zip": "3000"}}
{"address": {"address1": "566 Saint Kilda Road", "address2": null, "city": "Melbourne", "country": "Australia", "latitude": -37.846894, "longitude": 144.9785445, "province": "Victoria", "provinceCode": "VIC", "zip": "3004"}}
{"address": {"address1": "366 Dungay Creek Road", "address2": null, "city": "Dungay", "country": "Australia", "latitude": -28.2590657, "longitude": 153.3511174, "province": "New South Wales", "provinceCode": "NSW", "zip": "2484"}}
{"address": {"address1": "66 Pacific Highway", "address2": null, "city": "St Leonards", "country": "Australia", "latitude": -33.8244, "longitude": 151.1921496, "province": "New South Wales", "provinceCode": "NSW", "zip": "2065"}}
{"address": {"address1": "130 Lonsdale Street", "address2": null, "city": "Melbourne", "country": "Australia", "latitude": -37.810212, "longitude": 144.9686155, "province": "Victoria", "provinceCode": "VIC", "zip": "3000"}}
{"address": {"address1": "370 Little Lonsdale Street", "address2": null, "city": "Melbourne", "country": "Australia", "latitude": -37.8121112, "longitude": 144.9585905, "province": "Victoria", "provinceCode": "VIC", "zip": "3000"}}
{"address": {"address1": "147 Curzon Street", "address2": null, "city": "North Melbourne", "country": "Australia", "latitude": -37.7996894, "longitude": 144.9484276, "province": "Victoria", "provinceCode": "VIC", "zip": "3051"}}
{"address": {"address1": "202 Elizabeth", "address2": "202", "city": "Surry Hills", "country": "Australia", "latitude": -33.8801736, "longitude": 151.2092289, "province": "New South Wales", "provinceCode": "NSW", "zip": "2010"}}
{"address": {"address1": "664 Lorimer Street", "address2": null, "city": "Port Melbourne", "country": "Australia", "latitude": -37.8210457, "longitude": 144.92192, "province": "Victoria", "provinceCode": "VIC", "zip": "3207"}}
{"address": {"address1": "947 Mount Alexander Road", "address2": null, "city": "Essendon", "country": "Australia", "latitude": -37.7504484, "longitude": 144.9138686, "province": "Victoria", "provinceCode": "VIC", "zip": "3040"}}
{"address": {"address1": "289 Asian Supermarket", "address2": null, "city": "Burwood East", "country": "Australia", "latitude": -37.85328, "longitude": 145.159567, "province": "Victoria", "provinceCode": "VIC", "zip": "3151"}}
{"address": {"address1": "730 Deception Bay Road", "address2": null, "city": "Rothwell", "country": "Australia", "latitude": -27.2116539, "longitude": 153.0475709, "province": "Queensland", "provinceCode": "QLD", "zip": "4022"}}
{"address": {"address1": "948 The Horsley Drive", "address2": null, "city": "Wetherill Park", "country": "Australia", "latitude": -33.8514287, "longitude": 150.9147244, "province": "New South Wales", "provinceCode": "NSW", "zip": "2164"}}
{"address": {"address1": "321 Kent Street", "address2": null, "city": "Sydney", "country": "Australia", "latitude": -33.8676298, "longitude": 151.2039229, "province": "New South Wales", "provinceCode": "NSW", "zip": "2000"}}
{"address": {"address1": "437 Saint Kilda Road", "address2": null, "city": "Melbourne", "country": "Australia", "latitude": -37.8390535, "longitude": 144.9777484, "province": "Victoria", "provinceCode": "VIC", "zip": "3004"}}
{"address": {"address1": "2125", "address2": null, "city": "West Pennant Hills", "country": "Australia", "latitude": -33.7462388, "longitude": 151.0296696, "province": "New South Wales", "provinceCode": "NSW", "zip": "2125"}}
{"address": {"address1": "910 Upper Brookfield Road", "address2": null, "city": "Upper Brookfield", "country": "Australia", "latitude": -27.4729894, "longitude": 152.8307809, "province": "Queensland", "provinceCode": "QLD", "zip": "4069"}}
{"address": {"address1": "7017", "address2": null, "city": "Old Beach", "country": "Australia", "latitude": -42.7007869, "longitude": 147.3379482, "province": "Tasmania", "provinceCode": "TAS", "zip": "7017"}}
{"address": {"address1": "136 Corio Quay Road", "address2": null, "city": "North Geelong", "country": "Australia", "latitude": -38.1073128, "longitude": 144.3599486, "province": "Victoria", "provinceCode": "VIC", "zip": "3215"}}
{"address": {"address1": "422 Collins Street", "address2": null, "city": "Melbourne", "country": "Australia", "latitude": -37.8170971, "longitude": 144.9601487, "province": "Victoria", "provinceCode": "VIC", "zip": "3000"}}
{"address": {"address1": "791 Stafford Road", "address2": null, "city": "Everton Park", "country": "Australia", "latitude": -27.4066812, "longitude": 152.9918539, "province": "Queensland", "provinceCode": "QLD", "zip": "4053"}}
{"address": {"address1": "530 Little Collins Street", "address2": null, "city": "Melbourne", "country": "Australia", "latitude": -37.8169363, "longitude": 144.9570361, "province": "Victoria", "provinceCode": "VIC", "zip": "3000"}}
{"address": {"address1": "795 South Gippsland Highway", "address2": null, "city": "Hampton Park", "country": "Australia", "latitude": -38.06275, "longitude": 145.2661729, "province": "Victoria", "provinceCode": "VIC", "zip": "3976"}}
{"address": {"address1": "456 Lonsdale Street", "address2": null, "city": "Melbourne", "country": "Australia", "latitude": -37.81296040000001, "longitude": 144.9586669, "province": "Victoria", "provinceCode": "VIC", "zip": "3000"}}
{"address": {"address1": "349 Northbourne Avenue", "address2": null, "city": "Lyneham", "country": "Australia", "latitude": -35.2545613, "longitude": 149.1326284, "province": "Australian Capital Territory", "provinceCode": "ACT", "zip": "2602"}}
{"address": {"address1": "101 Waterloo Road", "address2": null, "city": "Macquarie Park", "country": "Australia", "latitude": -33.7787361, "longitude": 151.1215144, "province": "New South Wales", "provinceCode": "NSW", "zip": "2113"}}
{"address": {"address1": "385 Bourke Street", "address2": null, "city": "Melbourne", "country": "Australia", "latitude": -37.8148528, "longitude": 144.96291, "province": "Victoria", "provinceCode": "VIC", "zip": "3000"}}
{"address": {"address1": "937 Doncaster Road", "address2": null, "city": "Doncaster East", "country": "Australia", "latitude": -37.7878021, "longitude": 145.1528974, "province": "Victoria", "provinceCode": "VIC", "zip": "3109"}}
{"address": {"address1": "183 A'Beckett Street", "address2": null, "city": "Melbourne", "country": "Australia", "latitude": -37.8102712, "longitude": 144.9579823, "province": "Victoria", "provinceCode": "VIC", "zip": "3000"}}
{"address": {"address1": "279", "address2": null, "city": "West Melbourne", "country": "Australia", "latitude": -37.8056505, "longitude": 144.951959, "province": "Victoria", "provinceCode": "VIC", "zip": "3003"}}
{"address": {"address1": "549 Luxury Apartments", "address2": null, "city": "Urangan", "country": "Australia", "latitude": -25.2811587, "longitude": 152.8975855, "province": "Queensland", "provinceCode": "QLD", "zip": "4655"}}
{"address": {"address1": "331 Concord West Massage", "address2": null, "city": "Concord West", "country": "Australia", "latitude": -33.8476517, "longitude": 151.0898138, "province": "New South Wales", "provinceCode": "NSW", "zip": "2138"}}
{"address": {"address1": "274 William Street", "address2": null, "city": "Perth", "country": "Australia", "latitude": -31.9475551, "longitude": 115.8605612, "province": "Western Australia", "provinceCode": "WA", "zip": "6000"}}
{"address": {"address1": "671 Gardeners Road", "address2": null, "city": "Mascot", "country": "Australia", "latitude": -33.9203141, "longitude": 151.1861586, "province": "New South Wales", "provinceCode": "NSW", "zip": "2020"}}
{"address": {"address1": "4814", "address2": null, "city": "Annandale", "country": "Australia", "latitude": -19.2878252, "longitude": 146.7552341, "province": "Queensland", "provinceCode": "QLD", "zip": "4814"}}
{"address": {"address1": "548-568 Canterbury Road", "address2": null, "city": "Campsie", "country": "Australia", "latitude": -33.9214134, "longitude": 151.0981759, "province": "New South Wales", "provinceCode": "NSW", "zip": "2194"}}
{"address": {"address1": "945 Gold Coast Highway", "address2": null, "city": "Palm Beach", "country": "Australia", "latitude": -28.1270691, "longitude": 153.4772166, "province": "Queensland", "provinceCode": "QLD", "zip": "4221"}}
{"address": {"address1": "680 MacArthur Avenue Central", "address2": null, "city": "Pinkenba", "country": "Australia", "latitude": -27.434247, "longitude": 153.1114515, "province": "Queensland", "provinceCode": "QLD", "zip": "4008"}}
{"address": {"address1": "2485", "address2": null, "city": "Tweed Heads West", "country": "Australia", "latitude": -28.178556, "longitude": 153.5157018, "province": "New South Wales", "provinceCode": "NSW", "zip": "2485"}}
{"address": {"address1": "966 Hume Highway", "address2": null, "city": "Bass Hill", "country": "Australia", "latitude": -33.8962527, "longitude": 150.9915155, "province": "New South Wales", "provinceCode": "NSW", "zip": "2197"}}
{"address": {"address1": "557 Little Lonsdale Street", "address2": null, "city": "Melbourne", "country": "Australia", "latitude": -37.813306, "longitude": 144.9553567, "province": "Victoria", "provinceCode": "VIC", "zip": "3000"}}
{"address": {"address1": "1908 Cronulla Social Restaurant & Cocktail Bar", "address2": "1", "city": "Cronulla", "country": "Australia", "latitude": -34.054506, "longitude": 151.1524639, "province": "New South Wales", "provinceCode": "NSW", "zip": "2230"}}
{"address": {"address1": "607 Saint Kilda Road", "address2": null, "city": "Melbourne", "country": "Australia", "latitude": -37.8512221, "longitude": 144.9817991, "province": "Victoria", "provinceCode": "VIC", "zip": "3004"}}
{"address": {"address1": "801 Whitehorse Road", "address2": null, "city": "Mont Albert", "country": "Australia", "latitude": -37.8162959, "longitude": 145.1110603, "province": "Victoria", "provinceCode": "VIC", "zip": "3127"}}
{"address": {"address1": "689A The Horsley Drive", "address2": null, "city": "Smithfield", "country": "Australia", "latitude": -33.8532094, "longitude": 150.939461, "province": "New South Wales", "provinceCode": "NSW", "zip": "2164"}}
{"address": {"address1": "836 Boundary Road", "address2": null, "city": "Coopers Plains", "country": "Australia", "latitude": -27.5678431, "longitude": 153.0339298, "province": "Queensland", "provinceCode": "QLD", "zip": "4108"}}
{"address": {"address1": "649 Elgar Road", "address2": null, "city": "Mont Albert North", "country": "Australia", "latitude": -37.800235, "longitude": 145.1176253, "province": "Victoria", "provinceCode": "VIC", "zip": "3129"}}
{"address": {"address1": "357 Collins Street", "address2": null, "city": "Melbourne", "country": "Australia", "latitude": -37.8170089, "longitude": 144.9626893, "province": "Victoria", "provinceCode": "VIC", "zip": "3000"}}
{"address": {"address1": "204 Alice Street", "address2": null, "city": "Brisbane City", "country": "Australia", "latitude": -27.4723259, "longitude": 153.0294855, "province": "Queensland", "provinceCode": "QLD", "zip": "4000"}}
{"address": {"address1": "376 Flinders Street", "address2": null, "city": "Melbourne", "country": "Australia", "latitude": -37.8188111, "longitude": 144.9614417, "province": "Victoria", "provinceCode": "VIC", "zip": "3000"}}
{"address": {"address1": "896 Albany Highway", "address2": null, "city": "East Victoria Park", "country": "Australia", "latitude": -31.9862996, "longitude": 115.904436, "province": "Western Australia", "provinceCode": "WA", "zip": "6101"}}
{"address": {"address1": "458 Pizzeria", "address2": null, "city": "Murrumbeena", "country": "Australia", "latitude": -37.8896914, "longitude": 145.0674816, "province": "Victoria", "provinceCode": "VIC", "zip": "3163"}}
{"address": {"address1": "5732", "address2": null, "city": null, "country": "Australia", "latitude": -30.73599159999999, "longitude": 139.2030851, "province": "South Australia", "provinceCode": "SA", "zip": "5732"}}
{"address": {"address1": "4021", "address2": null, "city": "Kippa-Ring", "country": "Australia", "latitude": -27.223156, "longitude": 153.0824656, "province": "Queensland", "provinceCode": "QLD", "zip": "4021"}}
{"address": {"address1": "2582", "address2": null, "city": null, "country": "Australia", "latitude": -34.9445333, "longitude": 148.8289611, "province": "New South Wales", "provinceCode": "NSW", "zip": "2582"}}
{"address": {"address1": "913 South Road", "address2": null, "city": "Clarence Gardens", "country": "Australia", "latitude": -34.9754589, "longitude": 138.5739715, "province": "South Australia", "provinceCode": "SA", "zip": "5039"}}
{"address": {"address1": "851 Whitehorse Road", "address2": null, "city": "Box Hill", "country": "Australia", "latitude": -37.8169818, "longitude": 145.1176698, "province": "Victoria", "provinceCode": "VIC", "zip": "3128"}}
{"address": {"address1": "872 Paschendale Avenue", "address2": null, "city": "Merbein South", "country": "Australia", "latitude": -34.2047066, "longitude": 142.0172491, "province": "Victoria", "provinceCode": "VIC", "zip": "3505"}}
{"address": {"address1": "949 Dandenong Road", "address2": null, "city": "Malvern East", "country": "Australia", "latitude": -37.8785804, "longitude": 145.0483283, "province": "Victoria", "provinceCode": "VIC", "zip": "3145"}}
{"address": {"address1": "233 Castlereagh Street", "address2": null, "city": "Sydney", "country": "Australia", "latitude": -33.8759774, "longitude": 151.2084396, "province": "New South Wales", "provinceCode": "NSW", "zip": "2000"}}
{"address": {"address1": "13th Beach Golf Links", "address2": null, "city": "Barwon Heads", "country": "Australia", "latitude": -38.2778987, "longitude": 144.4577419, "province": "Victoria", "provinceCode": "VIC", "zip": "3227"}}
{"address": {"address1": "814 North Lake Road", "address2": null, "city": "Cockburn Central", "country": "Australia", "latitude": -32.1199211, "longitude": 115.8467466, "province": "Western Australia", "provinceCode": "WA", "zip": "6164"}}
{"address": {"address1": "2518", "address2": null, "city": "East Corrimal", "country": "Australia", "latitude": -34.3759776, "longitude": 150.9016476, "province": "New South Wales", "provinceCode": "NSW", "zip": "2518"}}
{"address": {"address1": "543 Elizabeth Street", "address2": null, "city": "Melbourne", "country": "Australia", "latitude": -37.8054627, "longitude": 144.9585662, "province": "Victoria", "provinceCode": "VIC", "zip": "3000"}}
{"address": {"address1": "395 Bourke Street", "address2": null, "city": "Melbourne", "country": "Australia", "latitude": -37.8147551, "longitude": 144.9622187, "province": "Victoria", "provinceCode": "VIC", "zip": "3000"}}
{"address": {"address1": "886 Humffray Street South", "address2": null, "city": "Mount Pleasant", "country": "Australia", "latitude": -37.5779503, "longitude": 143.849753, "province": "Victoria", "provinceCode": "VIC", "zip": "3350"}}
{"address": {"address1": "753 New Canterbury Road", "address2": null, "city": "Dulwich Hill", "country": "Australia", "latitude": -33.9048923, "longitude": 151.1323322, "province": "New South Wales", "provinceCode": "NSW", "zip": "2203"}}
{"address": {"address1": "160 Goulburn Street", "address2": null, "city": "Surry Hills", "country": "Australia", "latitude": -33.8785331, "longitude": 151.2120873, "province": "New South Wales", "provinceCode": "NSW", "zip": "2010"}}
{"address": {"address1": "359 Plummer Street", "address2": null, "city": "Port Melbourne", "country": "Australia", "latitude": -37.832795, "longitude": 144.9218712, "province": "Victoria", "provinceCode": "VIC", "zip": "3207"}}
{"address": {"address1": "905I Main Western Road", "address2": null, "city": "Tamborine Mountain", "country": "Australia", "latitude": -27.9848517, "longitude": 153.1830826, "province": "Queensland", "provinceCode": "QLD", "zip": "4272"}}
{"address": {"address1": "595 Mount Alexander Road", "address2": null, "city": "Moonee Ponds", "country": "Australia", "latitude": -37.768313, "longitude": 144.925046, "province": "Victoria", "provinceCode": "VIC", "zip": "3039"}}
{"address": {"address1": "122 Harrington Street", "address2": null, "city": "Hobart", "country": "Australia", "latitude": -42.8829026, "longitude": 147.3220259, "province": "Tasmania", "provinceCode": "TAS", "zip": "7000"}}
{"address": {"address1": "777 Automotive", "address2": null, "city": "North Albury", "country": "Australia", "latitude": -36.0678416, "longitude": 146.9301462, "province": "New South Wales", "provinceCode": "NSW", "zip": "2640"}}
{"address": {"address1": "239 George Street", "address2": null, "city": "Brisbane City", "country": "Australia", "latitude": -27.47031, "longitude": 153.023228, "province": "Queensland", "provinceCode": "QLD", "zip": "4000"}}
{"address": {"address1": "939 Albany Highway", "address2": null, "city": "East Victoria Park", "country": "Australia", "latitude": -31.9892634, "longitude": 115.9061223, "province": "Western Australia", "provinceCode": "WA", "zip": "6101"}}
{"address": {"address1": "325 Little Collins Street", "address2": null, "city": "Melbourne", "country": "Australia", "latitude": -37.8152425, "longitude": 144.9640364, "province": "Victoria", "provinceCode": "VIC", "zip": "3000"}}
{"address": {"address1": "796 Nicholson Street", "address2": null, "city": "Fitzroy North", "country": "Australia", "latitude": -37.7807604, "longitude": 144.9782541, "province": "Victoria", "provinceCode": "VIC", "zip": "3068"}}
{"address": {"address1": "483 Glen Huntly Road", "address2": null, "city": "Elsternwick", "country": "Australia", "latitude": -37.88501220000001, "longitude": 145.0084774, "province": "Victoria", "provinceCode": "VIC", "zip": "3185"}}
{"address": {"address1": "539 Saint Kilda Road", "address2": null, "city": "Melbourne", "country": "Australia", "latitude": -37.8454438, "longitude": 144.9794504, "province": "Victoria", "provinceCode": "VIC", "zip": "3004"}}
{"address": {"address1": "8848 Momo House", "address2": null, "city": "Fortitude Valley", "country": "Australia", "latitude": -27.4575428, "longitude": 153.0338575, "province": "Queensland", "provinceCode": "QLD", "zip": "4006"}}
{"address": {"address1": "1947 Coffee Co.", "address2": null, "city": "Clearview", "country": "Australia", "latitude": -34.8560807, "longitude": 138.6088348, "province": "South Australia", "provinceCode": "SA", "zip": "5085"}}
{"address": {"address1": "871 Albany Highway", "address2": null, "city": "East Victoria Park", "country": "Australia", "latitude": -31.98563759999999, "longitude": 115.9035812, "province": "Western Australia", "provinceCode": "WA", "zip": "6101"}}
{"address": {"address1": "534 Bacchus Marsh Road", "address2": null, "city": "Bacchus Marsh", "country": "Australia", "latitude": -37.68721439999999, "longitude": 144.4649571, "province": "Victoria", "provinceCode": "VIC", "zip": "3340"}}
{"address": {"address1": "237 Miller Street", "address2": null, "city": "North Sydney", "country": "Australia", "latitude": -33.8349982, "longitude": 151.2080742, "province": "New South Wales", "provinceCode": "NSW", "zip": "2060"}}
{"address": {"address1": "34 Balemo Street", "address2": null, "city": "Minyama", "country": "Australia", "latitude": -26.6971383, "longitude": 153.1191147, "province": "Queensland", "provinceCode": "QLD", "zip": "4575"}}
{"address": {"address1": "846 Nicholson Street", "address2": null, "city": "Fitzroy North", "country": "Australia", "latitude": -37.7787648, "longitude": 144.9785875, "province": "Victoria", "provinceCode": "VIC", "zip": "3068"}}
{"address": {"address1": "880 Lorimer Street", "address2": null, "city": "Port Melbourne", "country": "Australia", "latitude": -37.8233514, "longitude": 144.9361488, "province": "Victoria", "provinceCode": "VIC", "zip": "3207"}}
{"address": {"address1": "869 Drummond Street", "address2": null, "city": "Carlton North", "country": "Australia", "latitude": -37.7838805, "longitude": 144.9708813, "province": "Victoria", "provinceCode": "VIC", "zip": "3054"}}
{"address": {"address1": "668 Port Wakefield Road", "address2": null, "city": "Green Fields", "country": "Australia", "latitude": -34.7896687, "longitude": 138.5971206, "province": "South Australia", "provinceCode": "SA", "zip": "5107"}}
{"address": {"address1": "532 Station Street", "address2": null, "city": "Box Hill South", "country": "Australia", "latitude": -37.8209943, "longitude": 145.1234143, "province": "Victoria", "provinceCode": "VIC", "zip": "3128"}}
{"address": {"address1": "459 Little Collins Street", "address2": null, "city": "Melbourne", "country": "Australia", "latitude": -37.8166137, "longitude": 144.9595918, "province": "Victoria", "provinceCode": "VIC", "zip": "3000"}}
{"address": {"address1": "592 Mountain Highway", "address2": null, "city": "Bayswater", "country": "Australia", "latitude": -37.8429897, "longitude": 145.2554659, "province": "Victoria", "provinceCode": "VIC", "zip": "3153"}}
{"address": {"address1": "586 Frankston - Dandenong Road", "address2": null, "city": "Carrum Downs", "country": "Australia", "latitude": -38.097459, "longitude": 145.1733506, "province": "Victoria", "provinceCode": "VIC", "zip": "3201"}}
{"address": {"address1": "4152", "address2": null, "city": "Carina", "country": "Australia", "latitude": -27.5070527, "longitude": 153.1030766, "province": "Queensland", "provinceCode": "QLD", "zip": "4152"}}
{"address": {"address1": "737 Burwood Road", "address2": null, "city": "Hawthorn East", "country": "Australia", "latitude": -37.8240517, "longitude": 145.0487716, "province": "Victoria", "provinceCode": "VIC", "zip": "3123"}}
{"address": {"address1": "271 Collins Street", "address2": null, "city": "Melbourne", "country": "Australia", "latitude": -37.8161225, "longitude": 144.964913, "province": "Victoria", "provinceCode": "VIC", "zip": "3000"}}
{"address": {"address1": "128 Charlotte Street", "address2": null, "city": "Brisbane City", "country": "Australia", "latitude": -27.4704818, "longitude": 153.0275338, "province": "Queensland", "provinceCode": "QLD", "zip": "4000"}}
{"address": {"address1": "111 George Street", "address2": null, "city": "Brisbane City", "country": "Australia", "latitude": -27.4725409, "longitude": 153.0254522, "province": "Queensland", "provinceCode": "QLD", "zip": "4000"}}
{"address": {"address1": "623 Collins Street", "address2": null, "city": "Melbourne", "country": "Australia", "latitude": -37.8191861, "longitude": 144.9545211, "province": "Victoria", "provinceCode": "VIC", "zip": "3000"}}
{"address": {"address1": "2565", "address2": null, "city": "Bardia", "country": "Australia", "latitude": -33.9909712, "longitude": 150.8493059, "province": "New South Wales", "provinceCode": "NSW", "zip": "2565"}}
{"address": {"address1": "654 Cabramatta Road West", "address2": null, "city": "Bonnyrigg", "country": "Australia", "latitude": -33.8949183, "longitude": 150.8966241, "province": "New South Wales", "provinceCode": "NSW", "zip": "2177"}}
{"address": {"address1": "19th Avenue On The Beach Gold Coast", "address2": null, "city": "Palm Beach", "country": "Australia", "latitude": -28.109711, "longitude": 153.4668268, "province": "Queensland", "provinceCode": "QLD", "zip": "4221"}}
{"address": {"address1": "898 Tenthill Creek Road", "address2": null, "city": "Lower Tenthill", "country": "Australia", "latitude": -27.631962, "longitude": 152.2222467, "province": "Queensland", "provinceCode": "QLD", "zip": "4343"}}
{"address": {"address1": "850 Whitehorse Road", "address2": null, "city": "Box Hill", "country": "Australia", "latitude": -37.8175536, "longitude": 145.1184575, "province": "Victoria", "provinceCode": "VIC", "zip": "3128"}}
{"address": {"address1": "950 Rockingham Road", "address2": null, "city": "Wattleup", "country": "Australia", "latitude": -32.1680694, "longitude": 115.7930901, "province": "Western Australia", "provinceCode": "WA", "zip": "6166"}}
{"address": {"address1": "57 Cafe Bar Restaurant", "address2": null, "city": "Mount Waverley", "country": "Australia", "latitude": -37.8909274, "longitude": 145.1436822, "province": "Victoria", "provinceCode": "VIC", "zip": "3149"}}
{"address": {"address1": "2988 Surfers Paradise Boulevard", "address2": null, "city": "Surfers Paradise", "country": "Australia", "latitude": -28.009582, "longitude": 153.4291129, "province": "Queensland", "provinceCode": "QLD", "zip": "4217"}}
{"address": {"address1": "257 Home Kitchen Eastwood", "address2": null, "city": "Eastwood", "country": "Australia", "latitude": -33.7921968, "longitude": 151.0779035, "province": "New South Wales", "provinceCode": "NSW", "zip": "2122"}}
{"address": {"address1": "741 Hunter Street", "address2": null, "city": "Newcastle West", "country": "Australia", "latitude": -32.9258172, "longitude": 151.7603007, "province": "New South Wales", "provinceCode": "NSW", "zip": "2302"}}
{"address": {"address1": "82 Boundary Street", "address2": null, "city": "Brisbane City", "country": "Australia", "latitude": -27.4624632, "longitude": 153.0336229, "province": "Queensland", "provinceCode": "QLD", "zip": "4000"}}
{"address": {"address1": "863 King Georges Road", "address2": null, "city": "South Hurstville", "country": "Australia", "latitude": -33.9808416, "longitude": 151.107303, "province": "New South Wales", "provinceCode": "NSW", "zip": "2221"}}
{"address": {"address1": "964 Albany Highway", "address2": null, "city": "East Victoria Park", "country": "Australia", "latitude": -31.9901069, "longitude": 115.9081254, "province": "Western Australia", "provinceCode": "WA", "zip": "6101"}}
{"address": {"address1": "57 Hotel", "address2": null, "city": "Surry Hills", "country": "Australia", "latitude": -33.8843152, "longitude": 151.2102205, "province": "New South Wales", "provinceCode": "NSW", "zip": "2010"}}
{"address": {"address1": "633 Little Lonsdale Street", "address2": null, "city": "Melbourne", "country": "Australia", "latitude": -37.81417740000001, "longitude": 144.9525524, "province": "Victoria", "provinceCode": "VIC", "zip": "3000"}}
{"address": {"address1": "839 Boundary Road", "address2": null, "city": "Coopers Plains", "country": "Australia", "latitude": -27.5701648, "longitude": 153.0338975, "province": "Queensland", "provinceCode": "QLD", "zip": "4108"}}
{"address": {"address1": "4035", "address2": null, "city": "Bridgeman Downs", "country": "Australia", "latitude": -27.3565346, "longitude": 152.9794406, "province": "Queensland", "provinceCode": "QLD", "zip": "4035"}}
{"address": {"address1": "197 Macquarie Street", "address2": null, "city": "Sydney", "country": "Australia", "latitude": -33.8673329, "longitude": 151.2119789, "province": "New South Wales", "provinceCode": "NSW", "zip": "2000"}}
{"address": {"address1": "742 Lemon Tree Passage Road", "address2": null, "city": "Tanilba Bay", "country": "Australia", "latitude": -32.7581686, "longitude": 151.9758792, "province": "New South Wales", "provinceCode": "NSW", "zip": "2319"}}
{"address": {"address1": "480 Queen Street", "address2": null, "city": "Brisbane City", "country": "Australia", "latitude": -27.4645328, "longitude": 153.0310707, "province": "Queensland", "provinceCode": "QLD", "zip": "4000"}}
{"address": {"address1": "163 George Street", "address2": null, "city": "Parramatta", "country": "Australia", "latitude": -33.8172129, "longitude": 151.0138847, "province": "New South Wales", "provinceCode": "NSW", "zip": "2150"}}
{"address": {"address1": "4078", "address2": null, "city": "Forest Lake", "country": "Australia", "latitude": -27.6185546, "longitude": 152.9617842, "province": "Queensland", "provinceCode": "QLD", "zip": "4078"}}
{"address": {"address1": "2685 Gold Coast Highway", "address2": null, "city": "Broadbeach", "country": "Australia", "latitude": -28.0305453, "longitude": 153.430913, "province": "Queensland", "provinceCode": "QLD", "zip": "4218"}}
{"address": {"address1": "942 Lefthand Branch Road", "address2": null, "city": "Lefthand Branch", "country": "Australia", "latitude": -27.7954278, "longitude": 152.2677733, "province": "Queensland", "provinceCode": "QLD", "zip": "4343"}}
{"address": {"address1": "2233", "address2": null, "city": "Engadine", "country": "Australia", "latitude": -34.0845596, "longitude": 150.9947439, "province": "New South Wales", "provinceCode": "NSW", "zip": "2233"}}
{"address": {"address1": "914 King Georges Road", "address2": null, "city": "South Hurstville", "country": "Australia", "latitude": -33.9803374, "longitude": 151.1077933, "province": "New South Wales", "provinceCode": "NSW", "zip": "2221"}}
{"address": {"address1": "799 Pacific Highway", "address2": null, "city": "Chatswood", "country": "Australia", "latitude": -33.798149, "longitude": 151.1789243, "province": "New South Wales", "provinceCode": "NSW", "zip": "2067"}}
{"address": {"address1": "201 Sussex Street", "address2": null, "city": "Sydney", "country": "Australia", "latitude": -33.8713759, "longitude": 151.2037299, "province": "New South Wales", "provinceCode": "NSW", "zip": "2000"}}
{"address": {"address1": "511 Kent Street", "address2": null, "city": "Sydney", "country": "Australia", "latitude": -33.8743732, "longitude": 151.2051639, "province": "New South Wales", "provinceCode": "NSW", "zip": "2000"}}
{"address": {"address1": "678 Korean BBQ Restaurant", "address2": "Level 1", "city": "Haymarket", "country": "Australia", "latitude": -33.8782978, "longitude": 151.2075577, "province": "New South Wales", "provinceCode": "NSW", "zip": "2000"}}
{"address": {"address1": "3141", "address2": null, "city": "South Yarra", "country": "Australia", "latitude": -37.838568, "longitude": 144.9914761, "province": "Victoria", "provinceCode": "VIC", "zip": "3141"}}
{"address": {"address1": "969 Gold Coast Highway", "address2": null, "city": "Palm Beach", "country": "Australia", "latitude": -28.1252135, "longitude": 153.4768479, "province": "Queensland", "provinceCode": "QLD", "zip": "4221"}}
{"address": {"address1": "764 Morayfield Road", "address2": null, "city": "Burpengary", "country": "Australia", "latitude": -27.1486252, "longitude": 152.9757266, "province": "Queensland", "provinceCode": "QLD", "zip": "4505"}}
{"address": {"address1": "454 Saint Kilda Road", "address2": null, "city": "Melbourne", "country": "Australia", "latitude": -37.8394552, "longitude": 144.9761617, "province": "Victoria", "provinceCode": "VIC", "zip": "3004"}}
{"address": {"address1": "3752", "address2": null, "city": "South Morang", "country": "Australia", "latitude": -37.6377485, "longitude": 145.082419, "province": "Victoria", "provinceCode": "VIC", "zip": "3752"}}
{"address": {"address1": "172 Flinders Street", "address2": null, "city": "Melbourne", "country": "Australia", "latitude": -37.8166765, "longitude": 144.9687745, "province": "Victoria", "provinceCode": "VIC", "zip": "3000"}}
{"address": {"address1": "943 Dandenong Road", "address2": null, "city": "Malvern East", "country": "Australia", "latitude": -37.8782347, "longitude": 145.0481532, "province": "Victoria", "provinceCode": "VIC", "zip": "3145"}}
{"address": {"address1": "178 Johnston Street", "address2": null, "city": "Collingwood", "country": "Australia", "latitude": -37.7994715, "longitude": 144.9909489, "province": "Victoria", "provinceCode": "VIC", "zip": "3066"}}
{"address": {"address1": "598-600 Princes Highway", "address2": null, "city": "Rockdale", "country": "Australia", "latitude": -33.9559947, "longitude": 151.1384308, "province": "New South Wales", "provinceCode": "NSW", "zip": "2216"}}
{"address": {"address1": "364-426 Old Geelong Road", "address2": null, "city": "Hoppers Crossing", "country": "Australia", "latitude": -37.8709579, "longitude": 144.7325463, "province": "Victoria", "provinceCode": "VIC", "zip": "3029"}}
{"address": {"address1": "492-500 Elizabeth Street", "address2": null, "city": "Surry Hills", "country": "Australia", "latitude": -33.8893268, "longitude": 151.2082635, "province": "New South Wales", "provinceCode": "NSW", "zip": "2010"}}
{"address": {"address1": "265 Little Bourke Street", "address2": null, "city": "Melbourne", "country": "Australia", "latitude": -37.81281999999999, "longitude": 144.9647544, "province": "Victoria", "provinceCode": "VIC", "zip": "3004"}}
{"address": {"address1": "909 IT Solutions Canberra PTY LTD", "address2": "Unit 5A", "city": "Fyshwick", "country": "Australia", "latitude": -35.3242312, "longitude": 149.180144, "province": "Australian Capital Territory", "provinceCode": "ACT", "zip": "2609"}}
{"address": {"address1": "148-150 Canterbury Road", "address2": null, "city": "Bankstown", "country": "Australia", "latitude": -33.9344387, "longitude": 151.028851, "province": "New South Wales", "provinceCode": "NSW", "zip": "2200"}}
{"address": {"address1": "570 Saint Kilda Road", "address2": null, "city": "Melbourne", "country": "Australia", "latitude": -37.8473846, "longitude": 144.9790558, "province": "Victoria", "provinceCode": "VIC", "zip": "3004"}}
{"address": {"address1": "393 Spencer Street", "address2": null, "city": "West Melbourne", "country": "Australia", "latitude": -37.8113249, "longitude": 144.950247, "province": "Victoria", "provinceCode": "VIC", "zip": "3003"}}
{"address": {"address1": "293 Vulture Street", "address2": null, "city": "South Brisbane", "country": "Australia", "latitude": -27.4840755, "longitude": 153.0280953, "province": "Queensland", "provinceCode": "QLD", "zip": "4101"}}
{"address": {"address1": "946 Lower North East Road", "address2": null, "city": "Highbury", "country": "Australia", "latitude": -34.8560533, "longitude": 138.6938474, "province": "South Australia", "provinceCode": "SA", "zip": "5089"}}
{"address": {"address1": "781 Aitken Boulevard", "address2": null, "city": "Craigieburn", "country": "Australia", "latitude": -37.5891213, "longitude": 144.9105553, "province": "Victoria", "provinceCode": "VIC", "zip": "3064"}}
{"address": {"address1": "336 Parramatta Road", "address2": null, "city": "Stanmore", "country": "Australia", "latitude": -33.8885374, "longitude": 151.1633758, "province": "New South Wales", "provinceCode": "NSW", "zip": "2048"}}
{"address": {"address1": "199A\u00ae", "address2": null, "city": "Brisbane City", "country": "Australia", "latitude": -27.4695906, "longitude": 153.0274284, "province": "Queensland", "provinceCode": "QLD", "zip": "4000"}}
{"address": {"address1": "399 Little Lonsdale Street", "address2": null, "city": "Melbourne", "country": "Australia", "latitude": -37.8120449, "longitude": 144.960108, "province": "Victoria", "provinceCode": "VIC", "zip": "3000"}}
{"address": {"address1": "1080 Beach", "address2": null, "city": "Mystery Bay", "country": "Australia", "latitude": -36.320809, "longitude": 150.1234873, "province": "New South Wales", "provinceCode": "NSW", "zip": "2546"}}
{"address": {"address1": "678 Korean BBQ Kang Ho Dong Baekjeong", "address2": "shop 34", "city": "Haymarket", "country": "Australia", "latitude": -33.87652260000001, "longitude": 151.2036687, "province": "New South Wales", "provinceCode": "NSW", "zip": "2000"}}
{"address": {"address1": "143 Marrickville Road", "address2": null, "city": "Marrickville", "country": "Australia", "latitude": -33.9118434, "longitude": 151.1596983, "province": "New South Wales", "provinceCode": "NSW", "zip": "2204"}}
{"address": {"address1": "324 Queen Street", "address2": null, "city": "Brisbane City", "country": "Australia", "latitude": -27.4665578, "longitude": 153.0286627, "province": "Queensland", "provinceCode": "QLD", "zip": "4000"}}
{"address": {"address1": "462 Dandenong Road", "address2": null, "city": "Caulfield North", "country": "Australia", "latitude": -37.8635393, "longitude": 145.0202744, "province": "Victoria", "provinceCode": "VIC", "zip": "3161"}}
{"address": {"address1": "360 Three Sixty Shisha Lounge Cafe", "address2": "2", "city": "Hughesdale", "country": "Australia", "latitude": -37.8934715, "longitude": 145.0877202, "province": "Victoria", "provinceCode": "VIC", "zip": "3166"}}
{"address": {"address1": "780 Burwood Highway", "address2": null, "city": "Ferntree Gully", "country": "Australia", "latitude": -37.8813913, "longitude": 145.2712462, "province": "Victoria", "provinceCode": "VIC", "zip": "3156"}}
{"address": {"address1": "853 Mount Cotton Road", "address2": null, "city": "Mount Cotton", "country": "Australia", "latitude": -27.5908455, "longitude": 153.2280958, "province": "Queensland", "provinceCode": "QLD", "zip": "4165"}}
{"address": {"address1": "738 Hunter Street", "address2": null, "city": "Newcastle West", "country": "Australia", "latitude": -32.9261082, "longitude": 151.7621696, "province": "New South Wales", "provinceCode": "NSW", "zip": "2302"}}
{"address": {"address1": "280 Elizabeth Street", "address2": null, "city": "Surry Hills", "country": "Australia", "latitude": -33.8827625, "longitude": 151.2092424, "province": "New South Wales", "provinceCode": "NSW", "zip": "2010"}}
{"address": {"address1": "137 Flockton Street", "address2": null, "city": "Everton Park", "country": "Australia", "latitude": -27.3940758, "longitude": 152.9930057, "province": "Queensland", "provinceCode": "QLD", "zip": "4053"}}
{"address": {"address1": "438 Victoria Street", "address2": null, "city": "Darlinghurst", "country": "Australia", "latitude": -33.8807111, "longitude": 151.2199972, "province": "New South Wales", "provinceCode": "NSW", "zip": "2010"}}
{"address": {"address1": "471 Great Eastern Highway", "address2": null, "city": "Redcliffe", "country": "Australia", "latitude": -31.9283325, "longitude": 115.949248, "province": "Western Australia", "provinceCode": "WA", "zip": "6104"}}
{"address": {"address1": "638 Bacchus Marsh Road", "address2": null, "city": "Bacchus Marsh", "country": "Australia", "latitude": -37.6877924, "longitude": 144.4774, "province": "Victoria", "provinceCode": "VIC", "zip": "3340"}}
{"address": {"address1": "505 Little Collins Street", "address2": null, "city": "Melbourne", "country": "Australia", "latitude": -37.8170849, "longitude": 144.957676, "province": "Victoria", "provinceCode": "VIC", "zip": "3000"}}
{"address": {"address1": "608 Saint Kilda Road", "address2": null, "city": "Melbourne", "country": "Australia", "latitude": -37.8516798, "longitude": 144.9804293, "province": "Victoria", "provinceCode": "VIC", "zip": "3004"}}
{"address": {"address1": "284 Main Creek Road", "address2": null, "city": "Main Ridge", "country": "Australia", "latitude": -38.3857452, "longitude": 144.9741986, "province": "Victoria", "provinceCode": "VIC", "zip": "3928"}}
{"address": {"address1": "496 Elgar Road", "address2": null, "city": "Box Hill North", "country": "Australia", "latitude": -37.8122994, "longitude": 145.1161814, "province": "Victoria", "provinceCode": "VIC", "zip": "3129"}}
{"address": {"address1": "644 Chapel Street", "address2": null, "city": "South Yarra", "country": "Australia", "latitude": -37.8385561, "longitude": 144.9959957, "province": "Victoria", "provinceCode": "VIC", "zip": "3141"}}
{"address": {"address1": "244 Shands Road", "address2": null, "city": "Main Ridge", "country": "Australia", "latitude": -38.4011133, "longitude": 144.9926575, "province": "Victoria", "provinceCode": "VIC", "zip": "3928"}}
{"address": {"address1": "555 Saint Kilda Road", "address2": null, "city": "Melbourne", "country": "Australia", "latitude": -37.8470519, "longitude": 144.9806754, "province": "Victoria", "provinceCode": "VIC", "zip": "3004"}}
{"address": {"address1": "89 Gladstone Street", "address2": null, "city": "South Melbourne", "country": "Australia", "latitude": -37.8301549, "longitude": 144.9500578, "province": "Victoria", "provinceCode": "VIC", "zip": "3205"}}
{"address": {"address1": "44 Musk Avenue", "address2": null, "city": "Kelvin Grove", "country": "Australia", "latitude": -27.4536551, "longitude": 153.0134601, "province": "Queensland", "provinceCode": "QLD", "zip": "4059"}}
{"address": {"address1": "491 Wickham Terrace", "address2": null, "city": "Spring Hill", "country": "Australia", "latitude": -27.4612233, "longitude": 153.0203226, "province": "Queensland", "provinceCode": "QLD", "zip": "4000"}}
{"address": {"address1": "823-865 Centre Road", "address2": null, "city": "Bentleigh East", "country": "Australia", "latitude": -37.9215808, "longitude": 145.0631456, "province": "Victoria", "provinceCode": "VIC", "zip": "3165"}}
{"address": {"address1": "957 Healesville-Yarra Glen Road", "address2": null, "city": "Yarra Glen", "country": "Australia", "latitude": -37.6633391, "longitude": 145.4005761, "province": "Victoria", "provinceCode": "VIC", "zip": "3775"}}
{"address": {"address1": "568 David Street", "address2": null, "city": "Albury", "country": "Australia", "latitude": -36.0780219, "longitude": 146.9217364, "province": "New South Wales", "provinceCode": "NSW", "zip": "2640"}}
{"address": {"address1": "798 Parramatta Road", "address2": null, "city": "Lewisham", "country": "Australia", "latitude": -33.890235, "longitude": 151.1465779, "province": "New South Wales", "provinceCode": "NSW", "zip": "2049"}}
{"address": {"address1": "641 Mount Alexander Road", "address2": null, "city": "Moonee Ponds", "country": "Australia", "latitude": -37.7664648, "longitude": 144.9241503, "province": "Victoria", "provinceCode": "VIC", "zip": "3039"}}
{"address": {"address1": "575 North East Road", "address2": null, "city": "Gilles Plains", "country": "Australia", "latitude": -34.8567267, "longitude": 138.6556894, "province": "South Australia", "provinceCode": "SA", "zip": "5086"}}
{"address": {"address1": "687 Hunter Street", "address2": null, "city": "Newcastle West", "country": "Australia", "latitude": -32.9265954, "longitude": 151.7622195, "province": "New South Wales", "provinceCode": "NSW", "zip": "2302"}}
{"address": {"address1": "185 Fox Valley Road", "address2": null, "city": "Wahroonga", "country": "Australia", "latitude": -33.7345082, "longitude": 151.0991352, "province": "New South Wales", "provinceCode": "NSW", "zip": "2076"}}
{"address": {"address1": "826 Lorimer Street", "address2": null, "city": "Port Melbourne", "country": "Australia", "latitude": -37.8226323, "longitude": 144.9321032, "province": "Victoria", "provinceCode": "VIC", "zip": "3207"}}
{"address": {"address1": "601 Little Lonsdale Street", "address2": null, "city": "Melbourne", "country": "Australia", "latitude": -37.8137438, "longitude": 144.9536855, "province": "Victoria", "provinceCode": "VIC", "zip": "3000"}}
{"address": {"address1": "775 Kingsford Smith Drive", "address2": null, "city": "Eagle Farm", "country": "Australia", "latitude": -27.4334719, "longitude": 153.0856951, "province": "Queensland", "provinceCode": "QLD", "zip": "4009"}}
{"address": {"address1": "76 Cathies Lane", "address2": null, "city": "Wantirna South", "country": "Australia", "latitude": -37.8688703, "longitude": 145.2127161, "province": "Victoria", "provinceCode": "VIC", "zip": "3152"}}
{"address": {"address1": "159 Home Kitchen", "address2": null, "city": "Ultimo", "country": "Australia", "latitude": -33.8841123, "longitude": 151.1972098, "province": "New South Wales", "provinceCode": "NSW", "zip": "2007"}}
{"address": {"address1": "705 High Street", "address2": null, "city": "Thornbury", "country": "Australia", "latitude": -37.7594071, "longitude": 145.0002346, "province": "Victoria", "provinceCode": "VIC", "zip": "3071"}}
{"address": {"address1": "171 Collins", "address2": null, "city": "Melbourne", "country": "Australia", "latitude": -37.8154778, "longitude": 144.9682824, "province": "Victoria", "provinceCode": "VIC", "zip": "3000"}}
{"address": {"address1": "695 North East Road", "address2": null, "city": "Gilles Plains", "country": "Australia", "latitude": -34.8482735, "longitude": 138.6693354, "province": "South Australia", "provinceCode": "SA", "zip": "5086"}}
{"address": {"address1": "1849 Backpackers", "address2": null, "city": "Albany", "country": "Australia", "latitude": -35.0265312, "longitude": 117.8831253, "province": "Western Australia", "provinceCode": "WA", "zip": "6330"}}
{"address": {"address1": "635 Elizabeth Street", "address2": null, "city": "Melbourne", "country": "Australia", "latitude": -37.8030109, "longitude": 144.9575316, "province": "Victoria", "provinceCode": "VIC", "zip": "3000"}}
{"address": {"address1": "674 Inkerman Road", "address2": null, "city": "Caulfield North", "country": "Australia", "latitude": -37.8688809, "longitude": 145.0220594, "province": "Victoria", "provinceCode": "VIC", "zip": "3161"}}
{"address": {"address1": "912 Chambers Flat Road", "address2": null, "city": "Chambers Flat", "country": "Australia", "latitude": -27.7471046, "longitude": 153.0916436, "province": "Queensland", "provinceCode": "QLD", "zip": "4133"}}
{"address": {"address1": "522 Flinders Lane", "address2": null, "city": "Melbourne", "country": "Australia", "latitude": -37.8194187, "longitude": 144.9559164, "province": "Victoria", "provinceCode": "VIC", "zip": "3000"}}
{"address": {"address1": "579 Springvale Road", "address2": null, "city": "Mulgrave", "country": "Australia", "latitude": -37.9070237, "longitude": 145.1599179, "province": "Victoria", "provinceCode": "VIC", "zip": "3170"}}
{"address": {"address1": "627 Victoria Street", "address2": null, "city": "Abbotsford", "country": "Australia", "latitude": -37.8107397, "longitude": 145.0090307, "province": "Victoria", "provinceCode": "VIC", "zip": "3067"}}
{"address": {"address1": "899 Great Northern Highway", "address2": null, "city": "Herne Hill", "country": "Australia", "latitude": -31.814219, "longitude": 116.0182297, "province": "Western Australia", "provinceCode": "WA", "zip": "6056"}}
{"address": {"address1": "2728 Logan Road", "address2": null, "city": "Eight Mile Plains", "country": "Australia", "latitude": -27.588136, "longitude": 153.1061707, "province": "Queensland", "provinceCode": "QLD", "zip": "4113"}}
{"address": {"address1": "718 Ruthven Street", "address2": null, "city": "South Toowoomba", "country": "Australia", "latitude": -27.5766894, "longitude": 151.9510295, "province": "Queensland", "provinceCode": "QLD", "zip": "4350"}}
{"address": {"address1": "682 Nicholson Street", "address2": null, "city": "Fitzroy North", "country": "Australia", "latitude": -37.7834899, "longitude": 144.97777, "province": "Victoria", "provinceCode": "VIC", "zip": "3068"}}
{"address": {"address1": "45 Clarke Street", "address2": null, "city": "Southbank", "country": "Australia", "latitude": -37.8269008, "longitude": 144.9595298, "province": "Victoria", "provinceCode": "VIC", "zip": "3006"}}
{"address": {"address1": "2548", "address2": null, "city": "Bournda", "country": "Australia", "latitude": -36.8301133, "longitude": 149.8757147, "province": "New South Wales", "provinceCode": "NSW", "zip": "2548"}}
{"address": {"address1": "596 David Low Way", "address2": null, "city": "Pacific Paradise", "country": "Australia", "latitude": -26.6196148, "longitude": 153.0731499, "province": "Queensland", "provinceCode": "QLD", "zip": "4564"}}
{"address": {"address1": "578 Brunswick Street", "address2": null, "city": "Fitzroy North", "country": "Australia", "latitude": -37.7879698, "longitude": 144.9805885, "province": "Victoria", "provinceCode": "VIC", "zip": "3068"}}
{"address": {"address1": "+39 Pizzeria CBD", "address2": null, "city": "Melbourne", "country": "Australia", "latitude": -37.8133939, "longitude": 144.9618064, "province": "Victoria", "provinceCode": "VIC", "zip": "3000"}}
{"address": {"address1": "930 Thompson Road", "address2": null, "city": "Cranbourne West", "country": "Australia", "latitude": -38.0785331, "longitude": 145.2434082, "province": "Victoria", "provinceCode": "VIC", "zip": "3977"}}
{"address": {"address1": "442 Elizabeth Street", "address2": null, "city": "Melbourne", "country": "Australia", "latitude": -37.8086391, "longitude": 144.9607892, "province": "Victoria", "provinceCode": "VIC", "zip": "3000"}}
{"address": {"address1": "301 King Street", "address2": null, "city": "Melbourne", "country": "Australia", "latitude": -37.8132921, "longitude": 144.954018, "province": "Victoria", "provinceCode": "VIC", "zip": "3000"}}
{"address": {"address1": "999 Noodle House", "address2": null, "city": "Ringwood North", "country": "Australia", "latitude": -37.7945965, "longitude": 145.2362015, "province": "Victoria", "provinceCode": "VIC", "zip": "3134"}}
{"address": {"address1": "267 Collins Street", "address2": null, "city": "Melbourne", "country": "Australia", "latitude": -37.8161869, "longitude": 144.965134, "province": "Victoria", "provinceCode": "VIC", "zip": "3000"}}
{"address": {"address1": "951 Great Northern Highway", "address2": null, "city": "Millendon", "country": "Australia", "latitude": -31.8095804, "longitude": 116.0184145, "province": "Western Australia", "provinceCode": "WA", "zip": "6056"}}
{"address": {"address1": "400 Gradi - Brunswick", "address2": null, "city": "Brunswick East", "country": "Australia", "latitude": -37.7759703, "longitude": 144.9707431, "province": "Victoria", "provinceCode": "VIC", "zip": "3057"}}
{"address": {"address1": "93a Heatherdale Road", "address2": null, "city": "Ringwood", "country": "Australia", "latitude": -37.8259784, "longitude": 145.2138389, "province": "Victoria", "provinceCode": "VIC", "zip": "3134"}}
{"address": {"address1": "974 Heatherton Road", "address2": null, "city": "Springvale South", "country": "Australia", "latitude": -37.9636179, "longitude": 145.1605606, "province": "Victoria", "provinceCode": "VIC", "zip": "3172"}}
{"address": {"address1": "630 Little Collins Street", "address2": null, "city": "Melbourne", "country": "Australia", "latitude": -37.8178485, "longitude": 144.9540097, "province": "Victoria", "provinceCode": "VIC", "zip": "3000"}}
{"address": {"address1": "326 Keilor Road", "address2": null, "city": "Essendon North", "country": "Australia", "latitude": -37.7369033, "longitude": 144.8923202, "province": "Victoria", "provinceCode": "VIC", "zip": "3041"}}
{"address": {"address1": "983 Doncaster Road", "address2": null, "city": "Doncaster East", "country": "Australia", "latitude": -37.7884202, "longitude": 145.1586674, "province": "Victoria", "provinceCode": "VIC", "zip": "3109"}}
{"address": {"address1": "825 Ann Street", "address2": null, "city": "Fortitude Valley", "country": "Australia", "latitude": -27.4559621, "longitude": 153.0378757, "province": "Queensland", "provinceCode": "QLD", "zip": "4006"}}
{"address": {"address1": "4101", "address2": null, "city": "Highgate Hill", "country": "Australia", "latitude": -27.4799195, "longitude": 153.0118145, "province": "Queensland", "provinceCode": "QLD", "zip": "4101"}}
{"address": {"address1": "83 Queens Bridge Street", "address2": null, "city": "Southbank", "country": "Australia", "latitude": -37.8235254, "longitude": 144.9609387, "province": "Victoria", "provinceCode": "VIC", "zip": "3006"}}
{"address": {"address1": "561-583 Polding Street", "address2": null, "city": "Wetherill Park", "country": "Australia", "latitude": -33.8570752, "longitude": 150.9003524, "province": "New South Wales", "provinceCode": "NSW", "zip": "2164"}}
{"address": {"address1": "18th Street Hot Pot", "address2": "Tenancy 2", "city": "Adelaide", "country": "Australia", "latitude": -34.9300787, "longitude": 138.5957951, "province": "South Australia", "provinceCode": "SA", "zip": "5000"}}
{"address": {"address1": "637 Flinders Street", "address2": null, "city": "Docklands", "country": "Australia", "latitude": -37.8219642, "longitude": 144.9534637, "province": "Victoria", "provinceCode": "VIC", "zip": "3008"}}
{"address": {"address1": "392 Spencer Street", "address2": null, "city": "West Melbourne", "country": "Australia", "latitude": -37.8113006, "longitude": 144.9508191, "province": "Victoria", "provinceCode": "VIC", "zip": "3003"}}
{"address": {"address1": "926 Mount Dandenong Tourist Road", "address2": null, "city": "Montrose", "country": "Australia", "latitude": -37.8109514, "longitude": 145.3437733, "province": "Victoria", "provinceCode": "VIC", "zip": "3765"}}
{"address": {"address1": "685 Hamilton Road", "address2": null, "city": "Chermside West", "country": "Australia", "latitude": -27.3835113, "longitude": 153.0180231, "province": "Queensland", "provinceCode": "QLD", "zip": "4032"}}
{"address": {"address1": "48h Pizza e Gnocchi Bar - South Yarra", "address2": null, "city": "South Yarra", "country": "Australia", "latitude": -37.8474313, "longitude": 144.9991188, "province": "Victoria", "provinceCode": "VIC", "zip": "3141"}}
{"address": {"address1": "847 Ferntree Gully Road", "address2": null, "city": "Wheelers Hill", "country": "Australia", "latitude": -37.9061191, "longitude": 145.1867874, "province": "Victoria", "provinceCode": "VIC", "zip": "3150"}}
{"address": {"address1": "657 Chapel Street", "address2": null, "city": "South Yarra", "country": "Australia", "latitude": -37.8369813, "longitude": 144.9956723, "province": "Victoria", "provinceCode": "VIC", "zip": "3141"}}
{"address": {"address1": "461 Henley Marine Dr", "address2": null, "city": "Drummoyne", "country": "Australia", "latitude": -33.8575957, "longitude": 151.1585717, "province": "New South Wales", "provinceCode": "NSW", "zip": "2047"}}
{"address": {"address1": "84 The Spit Holiday Apartments", "address2": null, "city": "Mooloolaba", "country": "Australia", "latitude": -26.6833543, "longitude": 153.1241037, "province": "Queensland", "provinceCode": "QLD", "zip": "4557"}}
{"address": {"address1": "338 Kings Way", "address2": null, "city": "South Melbourne", "country": "Australia", "latitude": -37.8349728, "longitude": 144.9702116, "province": "Victoria", "provinceCode": "VIC", "zip": "3205"}}
{"address": {"address1": "388 Brunswick Street", "address2": null, "city": "Fortitude Valley", "country": "Australia", "latitude": -27.4590772, "longitude": 153.0360404, "province": "Queensland", "provinceCode": "QLD", "zip": "4006"}}
{"address": {"address1": "819 New Canterbury Road", "address2": null, "city": "Dulwich Hill", "country": "Australia", "latitude": -33.90479210000001, "longitude": 151.1303752, "province": "New South Wales", "provinceCode": "NSW", "zip": "2203"}}
{"address": {"address1": "448 Botany Road", "address2": null, "city": "Beaconsfield", "country": "Australia", "latitude": -33.9116616, "longitude": 151.2015725, "province": "New South Wales", "provinceCode": "NSW", "zip": "2015"}}
{"address": {"address1": "593 Woodstock Avenue", "address2": null, "city": "Glendenning", "country": "Australia", "latitude": -33.7598685, "longitude": 150.8490333, "province": "New South Wales", "provinceCode": "NSW", "zip": "2761"}}
{"address": {"address1": "144 Edward Street", "address2": null, "city": "Brisbane City", "country": "Australia", "latitude": -27.4699605, "longitude": 153.0280687, "province": "Queensland", "provinceCode": "QLD", "zip": "4000"}}
{"address": {"address1": "132 Alice Street", "address2": null, "city": "Brisbane City", "country": "Australia", "latitude": -27.4739177, "longitude": 153.0279573, "province": "Queensland", "provinceCode": "QLD", "zip": "4000"}}
{"address": {"address1": "260 Spencer Street", "address2": null, "city": "Melbourne", "country": "Australia", "latitude": -37.81463249999999, "longitude": 144.9526152, "province": "Victoria", "provinceCode": "VIC", "zip": "3000"}}
{"address": {"address1": "327 Ferntree Gully Road", "address2": null, "city": "Preston", "country": "Australia", "latitude": -37.8996194, "longitude": 145.134307, "province": "Victoria", "provinceCode": "VIC", "zip": "3149"}}
{"address": {"address1": "844 Hunter Street", "address2": null, "city": "Newcastle West", "country": "Australia", "latitude": -32.9248295, "longitude": 151.7591014, "province": "New South Wales", "provinceCode": "NSW", "zip": "2302"}}
{"address": {"address1": "873 Albany Highway", "address2": null, "city": "East Victoria Park", "country": "Australia", "latitude": -31.98572549999999, "longitude": 115.9034643, "province": "Western Australia", "provinceCode": "WA", "zip": "6101"}}
{"address": {"address1": "977 Lamington National Park Road", "address2": null, "city": "Canungra", "country": "Australia", "latitude": -28.0790743, "longitude": 153.1095639, "province": "Queensland", "provinceCode": "QLD", "zip": "4275"}}
{"address": {"address1": "296 Little Lonsdale Street", "address2": null, "city": "Melbourne", "country": "Australia", "latitude": -37.8114904, "longitude": 144.9606243, "province": "Victoria", "provinceCode": "VIC", "zip": "3000"}}
{"address": {"address1": "96 Express", "address2": null, "city": "North Beach", "country": "Australia", "latitude": -31.86066989999999, "longitude": 115.7530728, "province": "Western Australia", "provinceCode": "WA", "zip": "6020"}}
{"address": {"address1": "4341", "address2": null, "city": "Laidley North", "country": "Australia", "latitude": -27.6849335, "longitude": 152.333048, "province": "Queensland", "provinceCode": "QLD", "zip": "4341"}}
{"address": {"address1": "3139", "address2": null, "city": "Launching Place", "country": "Australia", "latitude": -37.8251456, "longitude": 145.5579927, "province": "Victoria", "provinceCode": "VIC", "zip": "3139"}}
