{"address": {"address1": "Ronda de Sant Pere 56", "address2": null, "city": "Barcelona", "country": "Spain", "latitude": 41.390553, "longitude": 2.177548, "province": "Barcelona", "provinceCode": "B", "zip": "08010"}}
{"address": {"address1": "Calle del General Pardi\u00f1as 103", "address2": null, "city": "Madrid", "country": "Spain", "latitude": 40.4368616, "longitude": -3.6778135, "province": "Madrid", "provinceCode": "M", "zip": "28006"}}
{"address": {"address1": null, "address2": null, "city": "Oviedo", "country": "Spain", "latitude": 43.2994306, "longitude": -5.8274722, "province": "Asturias", "provinceCode": "O", "zip": "33660"}}
{"address": {"address1": "lugar los tableros 813", "address2": null, "city": "Alhaur\u00edn el Grande", "country": "Spain", "latitude": 36.6547304, "longitude": -4.6809221, "province": "M\u00e1laga", "provinceCode": "MA", "zip": "29120"}}
{"address": {"address1": "Gran Via de les Corts Catalanes 946", "address2": null, "city": "Barcelona", "country": "Spain", "latitude": 41.4092006, "longitude": 2.1955234, "province": "Barcelona", "provinceCode": "B", "zip": "08018"}}
{"address": {"address1": "Gran Via de les Corts Catalanes 645", "address2": null, "city": "Barcelona", "country": "Spain", "latitude": 41.392437, "longitude": 2.1717113, "province": "Barcelona", "provinceCode": "B", "zip": "08010"}}
{"address": {"address1": "Gran Via de les Corts Catalanes 658", "address2": null, "city": "Barcelona", "country": "Spain", "latitude": 41.3909422, "longitude": 2.1709482, "province": "Barcelona", "provinceCode": "B", "zip": "08010"}}
{"address": {"address1": "Paseo del General Mart\u00ednez Campos 14", "address2": null, "city": "Madrid", "country": "Spain", "latitude": 40.4348281, "longitude": -3.6967562, "province": "Madrid", "provinceCode": "M", "zip": "28010"}}
{"address": {"address1": "Carrer del Consell de Cent 396", "address2": null, "city": "Barcelona", "country": "Spain", "latitude": 41.3960704, "longitude": 2.1728293, "province": "Barcelona", "provinceCode": "B", "zip": "08009"}}
{"address": {"address1": "Carrer de la Diputaci\u00f3 133", "address2": null, "city": "Barcelona", "country": "Spain", "latitude": 41.38298899999999, "longitude": 2.1569387, "province": "Barcelona", "provinceCode": "B", "zip": "08015"}}
{"address": {"address1": "Gran Via de les Corts Catalanes 769", "address2": null, "city": "Barcelona", "country": "Spain", "latitude": 41.4021061, "longitude": 2.1846165, "province": "Barcelona", "provinceCode": "B", "zip": "08013"}}
{"address": {"address1": "Calle de Nuestra Se\u00f1ora de Valverde 191", "address2": null, "city": "Madrid", "country": "Spain", "latitude": 40.5046746, "longitude": -3.685679, "province": "Madrid", "provinceCode": "M", "zip": "28034"}}
{"address": {"address1": "Gran Via de les Corts Catalanes 790", "address2": null, "city": "Barcelona", "country": "Spain", "latitude": 41.39957589999999, "longitude": 2.1824179, "province": "Barcelona", "provinceCode": "B", "zip": "08013"}}
{"address": {"address1": "Carrer de Sant Antoni Maria Claret 167", "address2": null, "city": "Barcelona", "country": "Spain", "latitude": 41.4133399, "longitude": 2.1726949, "province": "Barcelona", "provinceCode": "B", "zip": "08025"}}
{"address": {"address1": "Calle del Pr\u00edncipe de Vergara 90", "address2": null, "city": "Madrid", "country": "Spain", "latitude": 40.4364109, "longitude": -3.6788635, "province": "Madrid", "provinceCode": "M", "zip": "28006"}}
{"address": {"address1": "Gran Via de les Corts Catalanes 570", "address2": null, "city": "Barcelona", "country": "Spain", "latitude": 41.3841429, "longitude": 2.1616896, "province": "Barcelona", "provinceCode": "B", "zip": "08011"}}
{"address": {"address1": "Carrer de Villarroel 216", "address2": null, "city": "Barcelona", "country": "Spain", "latitude": 41.3922157, "longitude": 2.1478253, "province": "Barcelona", "provinceCode": "B", "zip": "08036"}}
{"address": {"address1": "Avenida de la Constituci\u00f3n 184", "address2": null, "city": "Torrej\u00f3n de Ardoz", "country": "Spain", "latitude": 40.4608563, "longitude": -3.4552551, "province": "Madrid", "provinceCode": "M", "zip": "28850"}}
{"address": {"address1": "Gran Via de les Corts Catalanes 613", "address2": null, "city": "Barcelona", "country": "Spain", "latitude": 41.3903424, "longitude": 2.1684704, "province": "Barcelona", "provinceCode": "B", "zip": "08007"}}
{"address": {"address1": "Carrer de Pallars 203", "address2": null, "city": "Barcelona", "country": "Spain", "latitude": 41.4018556, "longitude": 2.1975542, "province": "Barcelona", "provinceCode": "B", "zip": "08005"}}
{"address": {"address1": "Gran Via de les Corts Catalanes 523", "address2": null, "city": "Barcelona", "country": "Spain", "latitude": 41.3822433, "longitude": 2.1581092, "province": "Barcelona", "provinceCode": "B", "zip": "08015"}}
{"address": {"address1": "Pla\u00e7a Camp de la Creu 13", "address2": null, "city": "Girona", "country": "Spain", "latitude": 41.9946478, "longitude": 2.7966571, "province": "Girona", "provinceCode": "GI", "zip": "17007"}}
{"address": {"address1": "Gran Via de les Corts Catalanes 491", "address2": null, "city": "Barcelona", "country": "Spain", "latitude": 41.3807579, "longitude": 2.1563373, "province": "Barcelona", "provinceCode": "B", "zip": "08015"}}
{"address": {"address1": null, "address2": null, "city": "Tavernes de la Valldigna", "country": "Spain", "latitude": 39.0812204, "longitude": -0.2526163, "province": "Valencia", "provinceCode": "V", "zip": "46760"}}
{"address": {"address1": "Calle del Pr\u00edncipe de Vergara 110", "address2": null, "city": "Madrid", "country": "Spain", "latitude": 40.4396375, "longitude": -3.6788012, "province": "Madrid", "provinceCode": "M", "zip": "28002"}}
{"address": {"address1": "Gran Via de les Corts Catalanes 941", "address2": null, "city": "Barcelona", "country": "Spain", "latitude": 41.4103348, "longitude": 2.19512, "province": "Barcelona", "provinceCode": "B", "zip": "08018"}}
{"address": {"address1": "Ronda del General Mitre 238", "address2": null, "city": "Barcelona", "country": "Spain", "latitude": 41.4057322, "longitude": 2.1487462, "province": "Barcelona", "provinceCode": "B", "zip": "08006"}}
{"address": {"address1": "Urbanizaci\u00f3n R\u00eca del Pas 831", "address2": null, "city": "Urbanizaci\u00f3n R\u00eda del Pas", "country": "Spain", "latitude": 43.42573609999999, "longitude": -3.9488885, "province": "Cantabria", "provinceCode": "S", "zip": "39478"}}
{"address": {"address1": "Gran Via de les Corts Catalanes 814", "address2": null, "city": "Barcelona", "country": "Spain", "latitude": 41.4005598, "longitude": 2.1836565, "province": "Barcelona", "provinceCode": "B", "zip": "08013"}}
{"address": {"address1": "Carrer d'Aribau 226", "address2": null, "city": "Barcelona", "country": "Spain", "latitude": 41.3951523, "longitude": 2.1506252, "province": "Barcelona", "provinceCode": "B", "zip": "08006"}}
{"address": {"address1": "Gran Via de les Corts Catalanes 697", "address2": null, "city": "Barcelona", "country": "Spain", "latitude": 41.3972605, "longitude": 2.1780507, "province": "Barcelona", "provinceCode": "B", "zip": "08013"}}
{"address": {"address1": "Carrer de la Diputaci\u00f3 249", "address2": null, "city": "Barcelona", "country": "Spain", "latitude": 41.3890535, "longitude": 2.1650479, "province": "Barcelona", "provinceCode": "B", "zip": "08007"}}
{"address": {"address1": "Calle Puerto de Pajares 827", "address2": null, "city": "Cotos de Monterrey", "country": "Spain", "latitude": 40.7901771, "longitude": -3.6041385, "province": "Madrid", "provinceCode": "M", "zip": "28729"}}
{"address": {"address1": null, "address2": null, "city": "Carme", "country": "Spain", "latitude": 41.5243069, "longitude": 1.6614947, "province": "Barcelona", "provinceCode": "B", "zip": "08789"}}
{"address": {"address1": "Gran Via de les Corts Catalanes 833", "address2": null, "city": "Barcelona", "country": "Spain", "latitude": 41.40475780000001, "longitude": 2.188285, "province": "Barcelona", "provinceCode": "B", "zip": "08018"}}
{"address": {"address1": "Calle Esparraguera 892", "address2": null, "city": "Mazarr\u00f3n", "country": "Spain", "latitude": 37.65961830000001, "longitude": -1.3602163, "province": "Murcia", "provinceCode": "MU", "zip": "30870"}}
{"address": {"address1": "Gran Via de les Corts Catalanes 586", "address2": null, "city": "Barcelona", "country": "Spain", "latitude": 41.3849684, "longitude": 2.1630218, "province": "Barcelona", "provinceCode": "B", "zip": "08011"}}
{"address": {"address1": "Gran Via de les Corts Catalanes 479", "address2": null, "city": "Barcelona", "country": "Spain", "latitude": 41.3802774, "longitude": 2.1554805, "province": "Barcelona", "provinceCode": "B", "zip": "08015"}}
{"address": {"address1": "Carrer de Muntaner 244", "address2": null, "city": "Barcelona", "country": "Spain", "latitude": 41.3946908, "longitude": 2.1493601, "province": "Barcelona", "provinceCode": "B", "zip": "08021"}}
{"address": {"address1": null, "address2": null, "city": "Sanl\u00facar la Mayor", "country": "Spain", "latitude": 37.4418159, "longitude": -6.2482149, "province": "Seville", "provinceCode": "SE", "zip": "41800"}}
{"address": {"address1": "Calle de Cedaceros 6", "address2": null, "city": "Madrid", "country": "Spain", "latitude": 40.41744, "longitude": -3.69857, "province": "Madrid", "provinceCode": "M", "zip": "28014"}}
{"address": {"address1": "Gran Via de les Corts Catalanes 732", "address2": null, "city": "Barcelona", "country": "Spain", "latitude": 41.3967995, "longitude": 2.1785336, "province": "Barcelona", "provinceCode": "B", "zip": "08013"}}
{"address": {"address1": "Carrer de Guifr\u00e9 625", "address2": null, "city": "Badalona", "country": "Spain", "latitude": 41.43713, "longitude": 2.23398, "province": "Barcelona", "provinceCode": "B", "zip": "08918"}}
{"address": {"address1": "Avenida de Monta\u00f1ana 825", "address2": null, "city": "Zaragoza", "country": "Spain", "latitude": 41.70516509999999, "longitude": -0.8146192999999999, "province": "Zaragoza", "provinceCode": "Z", "zip": "50059"}}
{"address": {"address1": "Avenida de las Playas", "address2": null, "city": "Puerto del Carmen", "country": "Spain", "latitude": 28.9200773, "longitude": -13.6450245, "province": "Las Palmas", "provinceCode": "GC", "zip": "35510"}}
{"address": {"address1": "Gran Via de les Corts Catalanes 715", "address2": null, "city": "Barcelona", "country": "Spain", "latitude": 41.3978077, "longitude": 2.1789943, "province": "Barcelona", "provinceCode": "B", "zip": "08013"}}
{"address": {"address1": "Gran Via de les Corts Catalanes 888", "address2": null, "city": "Barcelona", "country": "Spain", "latitude": 41.4079861, "longitude": 2.1919708, "province": "Barcelona", "provinceCode": "B", "zip": "08018"}}
{"address": {"address1": "Carretera de Montcada 526", "address2": null, "city": "Terrassa", "country": "Spain", "latitude": 41.5587842, "longitude": 2.0252835, "province": "Barcelona", "provinceCode": "B", "zip": "08223"}}
{"address": {"address1": "Gran Via de les Corts Catalanes 960", "address2": null, "city": "Barcelona", "country": "Spain", "latitude": 41.4096385, "longitude": 2.1960884, "province": "Barcelona", "provinceCode": "B", "zip": "08018"}}
{"address": {"address1": "Calle del Doctor Tolosa Latour 7", "address2": null, "city": "Madrid", "country": "Spain", "latitude": 40.3764166, "longitude": -3.698108999999999, "province": "Madrid", "provinceCode": "M", "zip": "28041"}}
{"address": {"address1": "Gran Via de les Corts Catalanes 515", "address2": null, "city": "Barcelona", "country": "Spain", "latitude": 41.3818607, "longitude": 2.1577208, "province": "Barcelona", "provinceCode": "B", "zip": "08015"}}
{"address": {"address1": "Gran Via de les Corts Catalanes 601", "address2": null, "city": "Barcelona", "country": "Spain", "latitude": 41.3886239, "longitude": 2.1662843, "province": "Barcelona", "provinceCode": "B", "zip": "08007"}}
{"address": {"address1": "Gran Via de les Corts Catalanes 629", "address2": null, "city": "Barcelona", "country": "Spain", "latitude": 41.3913493, "longitude": 2.1701037, "province": "Barcelona", "provinceCode": "B", "zip": "08010"}}
{"address": {"address1": "Carrer del Consell de Cent 597", "address2": null, "city": "Barcelona", "country": "Spain", "latitude": 41.40558619999999, "longitude": 2.1846549, "province": "Barcelona", "provinceCode": "B", "zip": "08026"}}
{"address": {"address1": "Carrer de la Llacuna 162", "address2": null, "city": "Barcelona", "country": "Spain", "latitude": 41.4064913, "longitude": 2.1928684, "province": "Barcelona", "provinceCode": "B", "zip": "08018"}}
{"address": {"address1": "Calle de Alcal\u00e1 499", "address2": null, "city": "Madrid", "country": "Spain", "latitude": 40.4404792, "longitude": -3.629713199999999, "province": "Madrid", "provinceCode": "M", "zip": "28027"}}
{"address": {"address1": "Gran Via de les Corts Catalanes 727", "address2": null, "city": "Barcelona", "country": "Spain", "latitude": 41.3982689, "longitude": 2.1795142, "province": "Barcelona", "provinceCode": "B", "zip": "08013"}}
{"address": {"address1": "Carrer de la Diputaci\u00f3 321", "address2": null, "city": "Barcelona", "country": "Spain", "latitude": 41.3936613, "longitude": 2.170929, "province": "Barcelona", "provinceCode": "B", "zip": "08009"}}
{"address": {"address1": "Gran Via de les Corts Catalanes 734", "address2": null, "city": "Barcelona", "country": "Spain", "latitude": 41.3970607, "longitude": 2.1788501, "province": "Barcelona", "provinceCode": "B", "zip": "08013"}}
{"address": {"address1": "Carrer de la Ciutat de Granada 45", "address2": null, "city": "Barcelona", "country": "Spain", "latitude": 41.3978922, "longitude": 2.1984314, "province": "Barcelona", "provinceCode": "B", "zip": "08005"}}
{"address": {"address1": "Carrer de Sep\u00falveda 178", "address2": null, "city": "Barcelona", "country": "Spain", "latitude": 41.3831947, "longitude": 2.1628134, "province": "Barcelona", "provinceCode": "B", "zip": "08011"}}
{"address": {"address1": "Carrer de Pallars 489", "address2": null, "city": "Barcelona", "country": "Spain", "latitude": 41.41335979999999, "longitude": 2.213614, "province": "Barcelona", "provinceCode": "B", "zip": "08019"}}
{"address": {"address1": "Gran Via de les Corts Catalanes 620", "address2": null, "city": "Barcelona", "country": "Spain", "latitude": 41.3876734, "longitude": 2.1668985, "province": "Barcelona", "provinceCode": "B", "zip": "08007"}}
{"address": {"address1": "Pasaje Rafael Nebot Cabrera 5", "address2": null, "city": "Las Palmas de Gran Canaria", "country": "Spain", "latitude": 28.1033974, "longitude": -15.4141901, "province": "Las Palmas", "provinceCode": "GC", "zip": "35002"}}
{"address": {"address1": "Gran Via de les Corts Catalanes 664", "address2": null, "city": "Barcelona", "country": "Spain", "latitude": 41.3914535, "longitude": 2.1714629, "province": "Barcelona", "provinceCode": "B", "zip": "08010"}}
{"address": {"address1": "Gran Via de les Corts Catalanes 722", "address2": null, "city": "Barcelona", "country": "Spain", "latitude": 41.396284, "longitude": 2.1779068, "province": "Barcelona", "provinceCode": "B", "zip": "08013"}}
{"address": {"address1": "Passeig del Vint-i-dos de Juliol 887", "address2": null, "city": "Terrassa", "country": "Spain", "latitude": 41.5677221, "longitude": 2.0412271, "province": "Barcelona", "provinceCode": "B", "zip": "08227"}}
{"address": {"address1": "Calle del Pr\u00edncipe de Vergara 53", "address2": null, "city": "Madrid", "country": "Spain", "latitude": 40.4320219, "longitude": -3.6798388, "province": "Madrid", "provinceCode": "M", "zip": "28006"}}
{"address": {"address1": "Gran Via de les Corts Catalanes 698", "address2": null, "city": "Barcelona", "country": "Spain", "latitude": 41.3934619, "longitude": 2.1742497, "province": "Barcelona", "provinceCode": "B", "zip": "08010"}}
{"address": {"address1": "Avenida de Alberto de Alcocer 43", "address2": null, "city": "Madrid", "country": "Spain", "latitude": 40.45888, "longitude": -3.680190899999999, "province": "Madrid", "provinceCode": "M", "zip": "28016"}}
{"address": {"address1": "Carrer de Bail\u00e8n 154", "address2": null, "city": "Barcelona", "country": "Spain", "latitude": 41.3999105, "longitude": 2.1668532, "province": "Barcelona", "provinceCode": "B", "zip": "08037"}}
{"address": {"address1": "Carrer de Val\u00e8ncia 621", "address2": null, "city": "Barcelona", "country": "Spain", "latitude": 41.4108945, "longitude": 2.1872661, "province": "Barcelona", "provinceCode": "B", "zip": "08026"}}
{"address": {"address1": "Calle de El Escorial 14", "address2": null, "city": "Madrid", "country": "Spain", "latitude": 40.4240088, "longitude": -3.7033715, "province": "Madrid", "provinceCode": "M", "zip": "28004"}}
{"address": {"address1": "Gran Via de les Corts Catalanes 688", "address2": null, "city": "Barcelona", "country": "Spain", "latitude": 41.3930619, "longitude": 2.1738039, "province": "Barcelona", "provinceCode": "B", "zip": "08010"}}
{"address": {"address1": "Carrer de Estel Polar 9332", "address2": null, "city": "El Prat de Llobregat", "country": "Spain", "latitude": 41.2987887, "longitude": 2.0632286, "province": "Barcelona", "provinceCode": "B", "zip": "08820"}}
{"address": {"address1": "Carrer de Viladomat 299", "address2": null, "city": "Barcelona", "country": "Spain", "latitude": 41.3886104, "longitude": 2.1450053, "province": "Barcelona", "provinceCode": "B", "zip": "08029"}}
{"address": {"address1": "Carrer del Comte d'Urgell 232", "address2": null, "city": "Barcelona", "country": "Spain", "latitude": 41.3896906, "longitude": 2.1489764, "province": "Barcelona", "provinceCode": "B", "zip": "08036"}}
{"address": {"address1": "Gran Via de les Corts Catalanes 702", "address2": null, "city": "Barcelona", "country": "Spain", "latitude": 41.3937254, "longitude": 2.1745286, "province": "Barcelona", "provinceCode": "B", "zip": "08010"}}
{"address": {"address1": null, "address2": null, "city": "Arteixo", "country": "Spain", "latitude": 43.31589659999999, "longitude": -8.5116903, "province": "A Coru\u00f1a", "provinceCode": "C", "zip": "15142"}}
{"address": {"address1": "Calle de Mar\u00eda de Molina 54", "address2": null, "city": "Madrid", "country": "Spain", "latitude": 40.4371116, "longitude": -3.6799531, "province": "Madrid", "provinceCode": "M", "zip": "28006"}}
{"address": {"address1": "Gran Via de les Corts Catalanes 696", "address2": null, "city": "Barcelona", "country": "Spain", "latitude": 41.3933844, "longitude": 2.1742113, "province": "Barcelona", "provinceCode": "B", "zip": "08010"}}
{"address": {"address1": "Gran Via de les Corts Catalanes 606", "address2": null, "city": "Barcelona", "country": "Spain", "latitude": 41.3871755, "longitude": 2.1658305, "province": "Barcelona", "provinceCode": "B", "zip": "08007"}}
{"address": {"address1": "Gran Via de les Corts Catalanes 595", "address2": null, "city": "Barcelona", "country": "Spain", "latitude": 41.38816480000001, "longitude": 2.1661667, "province": "Barcelona", "provinceCode": "B", "zip": "08007"}}
{"address": {"address1": "Gran Via de les Corts Catalanes 322", "address2": null, "city": "Barcelona", "country": "Spain", "latitude": 41.3731693, "longitude": 2.1474033, "province": "Barcelona", "provinceCode": "B", "zip": "08004"}}
{"address": {"address1": "Gran Via de les Corts Catalanes 721", "address2": null, "city": "Barcelona", "country": "Spain", "latitude": 41.3981776, "longitude": 2.179317600000001, "province": "Barcelona", "provinceCode": "B", "zip": "08013"}}
{"address": {"address1": "Carrer de Mallorca 607", "address2": null, "city": "Barcelona", "country": "Spain", "latitude": 41.41177340000001, "longitude": 2.1862736, "province": "Barcelona", "provinceCode": "B", "zip": "08026"}}
{"address": {"address1": "Calle del Camino de los Vinateros 51", "address2": null, "city": "Madrid", "country": "Spain", "latitude": 40.4111783, "longitude": -3.6540066, "province": "Madrid", "provinceCode": "M", "zip": "28030"}}
{"address": {"address1": "Gran Via de les Corts Catalanes 871", "address2": null, "city": "Barcelona", "country": "Spain", "latitude": 41.4076165, "longitude": 2.1920183, "province": "Barcelona", "provinceCode": "B", "zip": "08018"}}
{"address": {"address1": "Gran Via de les Corts Catalanes 509", "address2": null, "city": "Barcelona", "country": "Spain", "latitude": 41.3816317, "longitude": 2.1573417, "province": "Barcelona", "provinceCode": "B", "zip": "08015"}}
{"address": {"address1": "Carrer de l'Argenteria 47", "address2": null, "city": "Barcelona", "country": "Spain", "latitude": 41.3837318, "longitude": 2.1804023, "province": "Barcelona", "provinceCode": "B", "zip": "08003"}}
{"address": {"address1": "Gran Via de les Corts Catalanes 602", "address2": null, "city": "Barcelona", "country": "Spain", "latitude": 41.3867057, "longitude": 2.1653055, "province": "Barcelona", "provinceCode": "B", "zip": "08007"}}
{"address": {"address1": null, "address2": null, "city": "Xinzo de Limia", "country": "Spain", "latitude": 42.060078, "longitude": -7.725376, "province": "Province of Ourense", "provinceCode": "OR", "zip": "32630"}}
{"address": {"address1": "Calle de Josep Lluis Albinyana i Olmos 703013", "address2": null, "city": "Alicante (Alacant)", "country": "Spain", "latitude": 38.3596408, "longitude": -0.4762902, "province": "Alicante", "provinceCode": "A", "zip": "03013"}}
{"address": {"address1": "Gran Via de les Corts Catalanes 951", "address2": null, "city": "Barcelona", "country": "Spain", "latitude": 41.4109572, "longitude": 2.1960747, "province": "Barcelona", "provinceCode": "B", "zip": "08018"}}
{"address": {"address1": "Calle del Pr\u00edncipe de Vergara 262", "address2": null, "city": "Madrid", "country": "Spain", "latitude": 40.4568695, "longitude": -3.676565499999999, "province": "Madrid", "provinceCode": "M", "zip": "28016"}}
{"address": {"address1": "Gran Via de les Corts Catalanes 529", "address2": null, "city": "Barcelona", "country": "Spain", "latitude": 41.3826523, "longitude": 2.1588011, "province": "Barcelona", "provinceCode": "B", "zip": "08015"}}
{"address": {"address1": "Gran Via de les Corts Catalanes 932", "address2": null, "city": "Barcelona", "country": "Spain", "latitude": 41.4083672, "longitude": 2.1944544, "province": "Barcelona", "provinceCode": "B", "zip": "08018"}}
{"address": {"address1": "Rambla de la Marina 542", "address2": null, "city": "L'Hospitalet de Llobregat", "country": "Spain", "latitude": 41.3596673, "longitude": 2.1023724, "province": "Barcelona", "provinceCode": "B", "zip": "08901"}}
{"address": {"address1": null, "address2": null, "city": "Soria", "country": "Spain", "latitude": 41.8628593, "longitude": -2.9175955, "province": "Soria", "provinceCode": "SO", "zip": "42005"}}
{"address": {"address1": null, "address2": null, "city": "Cartagena", "country": "Spain", "latitude": 37.5971265, "longitude": -1.0059724, "province": "Murcia", "provinceCode": "MU", "zip": "30205"}}
{"address": {"address1": "Gran Via de les Corts Catalanes 449", "address2": null, "city": "Barcelona", "country": "Spain", "latitude": 41.3791123, "longitude": 2.1539647, "province": "Barcelona", "provinceCode": "B", "zip": "08015"}}
{"address": {"address1": null, "address2": null, "city": "Santa Cruz de Bezana", "country": "Spain", "latitude": 43.461367, "longitude": -3.8808034, "province": "Cantabria", "provinceCode": "S", "zip": "39110"}}
{"address": {"address1": "Gran Via de les Corts Catalanes 660", "address2": null, "city": "Barcelona", "country": "Spain", "latitude": 41.3909983, "longitude": 2.1710826, "province": "Barcelona", "provinceCode": "B", "zip": "08010"}}
{"address": {"address1": "Calle del Doctor Esquerdo 155", "address2": null, "city": "Madrid", "country": "Spain", "latitude": 40.4093954, "longitude": -3.6697319, "province": "Madrid", "provinceCode": "M", "zip": "28007"}}
{"address": {"address1": "Carretera Villaverde a Vallecas 295", "address2": null, "city": "Madrid", "country": "Spain", "latitude": 40.37630430000001, "longitude": -3.6314311, "province": "Madrid", "provinceCode": "M", "zip": "28031"}}
{"address": {"address1": "Gran Via de les Corts Catalanes 978", "address2": null, "city": "Barcelona", "country": "Spain", "latitude": 41.410238, "longitude": 2.19709, "province": "Barcelona", "provinceCode": "B", "zip": "08018"}}
{"address": {"address1": "Ronda del General Mitre 263", "address2": null, "city": "Barcelona", "country": "Spain", "latitude": 41.4064966, "longitude": 2.1486502, "province": "Barcelona", "provinceCode": "B", "zip": "08023"}}
{"address": {"address1": null, "address2": null, "city": "San Juan de Aznalfarache", "country": "Spain", "latitude": 37.3626523, "longitude": -6.0308654, "province": "Seville", "provinceCode": "SE", "zip": "41920"}}
{"address": {"address1": "Carrer de Guip\u00fascoa 74", "address2": null, "city": "Barcelona", "country": "Spain", "latitude": 41.4172854, "longitude": 2.1987991, "province": "Barcelona", "provinceCode": "B", "zip": "08020"}}
{"address": {"address1": "Carrer de la Independ\u00e8ncia 375", "address2": null, "city": "Barcelona", "country": "Spain", "latitude": 41.41183789999999, "longitude": 2.1778852, "province": "Barcelona", "provinceCode": "B", "zip": "08026"}}
{"address": {"address1": "Calle de Santa Engracia 122", "address2": null, "city": "Madrid", "country": "Spain", "latitude": 40.4412813, "longitude": -3.7010552, "province": "Madrid", "provinceCode": "M", "zip": "28003"}}
{"address": {"address1": "Carrer de Proven\u00e7a 433", "address2": null, "city": "Barcelona", "country": "Spain", "latitude": 41.40417009999999, "longitude": 2.1736931, "province": "Barcelona", "provinceCode": "B", "zip": "08025"}}
{"address": {"address1": "Gran Via de les Corts Catalanes 731", "address2": null, "city": "Barcelona", "country": "Spain", "latitude": 41.3986302, "longitude": 2.1799567, "province": "Barcelona", "provinceCode": "B", "zip": "08013"}}
{"address": {"address1": "Gran Via de les Corts Catalanes 990", "address2": null, "city": "Barcelona", "country": "Spain", "latitude": 41.41088209999999, "longitude": 2.198212, "province": "Barcelona", "provinceCode": "B", "zip": "08018"}}
{"address": {"address1": "Paseo de la Castellana 202", "address2": null, "city": "Madrid", "country": "Spain", "latitude": 40.4626422, "longitude": -3.6889257, "province": "Madrid", "provinceCode": "M", "zip": "28046"}}
{"address": {"address1": "Carrer de Mallorca 251", "address2": null, "city": "Barcelona", "country": "Spain", "latitude": 41.3932082, "longitude": 2.1614618, "province": "Barcelona", "provinceCode": "B", "zip": "08008"}}
{"address": {"address1": "Plaza de San Francisco 8", "address2": null, "city": "M\u00e1laga", "country": "Spain", "latitude": 36.7242791, "longitude": -4.422883, "province": "M\u00e1laga", "provinceCode": "MA", "zip": "29008"}}
{"address": {"address1": "Avenida de Los Angeles 846", "address2": null, "city": "El Espinar", "country": "Spain", "latitude": 40.7778629, "longitude": -4.2199804, "province": "Segovia", "provinceCode": "SG", "zip": "40424"}}
{"address": {"address1": "Avinguda de Josep Tarradellas 132", "address2": null, "city": "Barcelona", "country": "Spain", "latitude": 41.3915694, "longitude": 2.1444328, "province": "Barcelona", "provinceCode": "B", "zip": "08029"}}
{"address": {"address1": "Carrer de la Diputaci\u00f3 427", "address2": null, "city": "Barcelona", "country": "Spain", "latitude": 41.3990975, "longitude": 2.1782426, "province": "Barcelona", "provinceCode": "B", "zip": "08013"}}
{"address": {"address1": "Gran Via de les Corts Catalanes 442", "address2": null, "city": "Barcelona", "country": "Spain", "latitude": 41.3783128, "longitude": 2.1539369, "province": "Barcelona", "provinceCode": "B", "zip": "08015"}}
{"address": {"address1": "Gran Via de les Corts Catalanes 709", "address2": null, "city": "Barcelona", "country": "Spain", "latitude": 41.3977371, "longitude": 2.1788675, "province": "Barcelona", "provinceCode": "B", "zip": "08013"}}
{"address": {"address1": null, "address2": null, "city": "Santa Coloma de Queralt", "country": "Spain", "latitude": 41.5379995, "longitude": 1.3806902, "province": "Tarragona", "provinceCode": "T", "zip": "43420"}}
{"address": {"address1": "Gran Via de les Corts Catalanes 818", "address2": null, "city": "Barcelona", "country": "Spain", "latitude": 41.4009016, "longitude": 2.1841941, "province": "Barcelona", "provinceCode": "B", "zip": "08013"}}
{"address": {"address1": "Paseo de la Castellana 200", "address2": null, "city": "Madrid", "country": "Spain", "latitude": 40.4626206, "longitude": -3.6889782, "province": "Madrid", "provinceCode": "M", "zip": "28046"}}
{"address": {"address1": "Carrer de C\u00f2rsega 398", "address2": null, "city": "Barcelona", "country": "Spain", "latitude": 41.3998624, "longitude": 2.1639997, "province": "Barcelona", "provinceCode": "B", "zip": "08037"}}
{"address": {"address1": "Gran Via de les Corts Catalanes 667", "address2": null, "city": "Barcelona", "country": "Spain", "latitude": 41.394243, "longitude": 2.1737986, "province": "Barcelona", "provinceCode": "B", "zip": "08010"}}
{"address": {"address1": "Gran Via de les Corts Catalanes 800", "address2": null, "city": "Barcelona", "country": "Spain", "latitude": 41.4001946, "longitude": 2.1822922, "province": "Barcelona", "provinceCode": "B", "zip": "08013"}}
{"address": {"address1": null, "address2": null, "city": "Las Torres de Cotillas", "country": "Spain", "latitude": 38.0274986, "longitude": -1.2433848, "province": "Murcia", "provinceCode": "MU", "zip": "30565"}}
{"address": {"address1": "Gran Via de les Corts Catalanes 756", "address2": null, "city": "Barcelona", "country": "Spain", "latitude": 41.3976554, "longitude": 2.1800471, "province": "Barcelona", "provinceCode": "B", "zip": "08013"}}
{"address": {"address1": "Passeig del Vint-i-dos de Juliol 708", "address2": null, "city": "Terrassa", "country": "Spain", "latitude": 41.5685457, "longitude": 2.0255332, "province": "Barcelona", "provinceCode": "B", "zip": "08222"}}
{"address": {"address1": "Gran Via de les Corts Catalanes 704", "address2": null, "city": "Barcelona", "country": "Spain", "latitude": 41.3939953, "longitude": 2.1748222, "province": "Barcelona", "provinceCode": "B", "zip": "08010"}}
{"address": {"address1": "Gran Via de les Corts Catalanes 563", "address2": null, "city": "Barcelona", "country": "Spain", "latitude": 41.3844721, "longitude": 2.1612524, "province": "Barcelona", "provinceCode": "B", "zip": "08011"}}
{"address": {"address1": "Passeig del Vint-i-dos de Juliol 591", "address2": null, "city": "Terrassa", "country": "Spain", "latitude": 41.5690882, "longitude": 2.0280078, "province": "Barcelona", "provinceCode": "B", "zip": "08226"}}
{"address": {"address1": null, "address2": null, "city": "O Porri\u00f1o", "country": "Spain", "latitude": 42.1638716, "longitude": -8.6105703, "province": "Pontevedra", "provinceCode": "PO", "zip": "36400"}}
{"address": {"address1": "Gran Via de les Corts Catalanes 582", "address2": null, "city": "Barcelona", "country": "Spain", "latitude": 41.3846825, "longitude": 2.1626188, "province": "Barcelona", "provinceCode": "B", "zip": "08011"}}
{"address": {"address1": "Carrer del Pare Francesc Molina 28", "address2": null, "city": "Palma", "country": "Spain", "latitude": 39.5826662, "longitude": 2.6481283, "province": "Illes Balears", "provinceCode": "PM", "zip": "07003"}}
{"address": {"address1": "Gran Via de les Corts Catalanes 863", "address2": null, "city": "Barcelona", "country": "Spain", "latitude": 41.4074582, "longitude": 2.1914994, "province": "Barcelona", "provinceCode": "B", "zip": "08018"}}
{"address": {"address1": "Calle de Alcal\u00e1 414", "address2": null, "city": "Madrid", "country": "Spain", "latitude": 40.4370422, "longitude": -3.6380888, "province": "Madrid", "provinceCode": "M", "zip": "28027"}}
{"address": {"address1": "Carrer de la Mare de D\u00e9u de la Salut 78", "address2": null, "city": "Barcelona", "country": "Spain", "latitude": 41.4128042, "longitude": 2.1595676, "province": "Barcelona", "provinceCode": "B", "zip": "08024"}}
{"address": {"address1": "Gran Via de les Corts Catalanes 735", "address2": null, "city": "Barcelona", "country": "Spain", "latitude": 41.3987017, "longitude": 2.1800973, "province": "Barcelona", "provinceCode": "B", "zip": "08013"}}
{"address": {"address1": "Carrer de Balmes 293", "address2": null, "city": "Barcelona", "country": "Spain", "latitude": 41.4017017, "longitude": 2.146478, "province": "Barcelona", "provinceCode": "B", "zip": "08006"}}
{"address": {"address1": "Travessera de Gr\u00e0cia 337", "address2": null, "city": "Barcelona", "country": "Spain", "latitude": 41.4072284, "longitude": 2.166872, "province": "Barcelona", "provinceCode": "B", "zip": "08025"}}
{"address": {"address1": "Avenida del Cardenal Herrera Oria 241", "address2": null, "city": "Madrid", "country": "Spain", "latitude": 40.4816438, "longitude": -3.7188753, "province": "Madrid", "provinceCode": "M", "zip": "28035"}}
{"address": {"address1": "Calle de Fern\u00e1ndez de la Hoz 70", "address2": null, "city": "Madrid", "country": "Spain", "latitude": 40.4388014, "longitude": -3.694298799999999, "province": "Madrid", "provinceCode": "M", "zip": "28003"}}
{"address": {"address1": "Avinguda d'Alfons XIII 557", "address2": null, "city": "Badalona", "country": "Spain", "latitude": 41.4341859, "longitude": 2.218604500000001, "province": "Barcelona", "provinceCode": "B", "zip": "08918"}}
{"address": {"address1": null, "address2": null, "city": "Madrid", "country": "Spain", "latitude": 40.39547640000001, "longitude": -3.6902166, "province": "Madrid", "provinceCode": "M", "zip": "28045"}}
{"address": {"address1": "Gran Via de les Corts Catalanes 959", "address2": null, "city": "Barcelona", "country": "Spain", "latitude": 41.4109572, "longitude": 2.1960747, "province": "Barcelona", "provinceCode": "B", "zip": "08018"}}
{"address": {"address1": "Gran Via de les Corts Catalanes 635", "address2": null, "city": "Barcelona", "country": "Spain", "latitude": 41.3918633, "longitude": 2.1708522, "province": "Barcelona", "provinceCode": "B", "zip": "08010"}}
{"address": {"address1": "Gran Via de les Corts Catalanes 605", "address2": null, "city": "Barcelona", "country": "Spain", "latitude": 41.3890576, "longitude": 2.167148, "province": "Barcelona", "provinceCode": "B", "zip": "08007"}}
{"address": {"address1": "Carrer de los Castillejos 158", "address2": null, "city": "Barcelona", "country": "Spain", "latitude": 41.4009214, "longitude": 2.1862485, "province": "Barcelona", "provinceCode": "B", "zip": "08013"}}
{"address": {"address1": "Travessera de Gr\u00e0cia 303", "address2": null, "city": "Barcelona", "country": "Spain", "latitude": 41.4064388, "longitude": 2.1655251, "province": "Barcelona", "provinceCode": "B", "zip": "08025"}}
{"address": {"address1": "Carrer de Balmes 421", "address2": null, "city": "Barcelona", "country": "Spain", "latitude": 41.407855, "longitude": 2.1378871, "province": "Barcelona", "provinceCode": "B", "zip": "08022"}}
{"address": {"address1": "Carrer del Consell de Cent 335", "address2": null, "city": "Barcelona", "country": "Spain", "latitude": 41.3901176, "longitude": 2.1641641, "province": "Barcelona", "provinceCode": "B", "zip": "08007"}}
{"address": {"address1": "Gran Via de les Corts Catalanes 540", "address2": null, "city": "Barcelona", "country": "Spain", "latitude": 41.382669, "longitude": 2.1598525, "province": "Barcelona", "provinceCode": "B", "zip": "08011"}}
{"address": {"address1": "Carrer de la Ciutat de Granada 131", "address2": null, "city": "Barcelona", "country": "Spain", "latitude": 41.4026482, "longitude": 2.1921242, "province": "Barcelona", "provinceCode": "B", "zip": "08018"}}
{"address": {"address1": "Gran Via de les Corts Catalanes 408", "address2": null, "city": "Barcelona", "country": "Spain", "latitude": 41.37664669999999, "longitude": 2.1518926, "province": "Barcelona", "provinceCode": "B", "zip": "08015"}}
{"address": {"address1": "Calle de Bravo Murillo 97", "address2": null, "city": "Madrid", "country": "Spain", "latitude": 40.4464331, "longitude": -3.7042083, "province": "Madrid", "provinceCode": "M", "zip": "28003"}}
{"address": {"address1": "Carrer de Villarroel 170", "address2": null, "city": "Barcelona", "country": "Spain", "latitude": 41.3891266, "longitude": 2.1517606, "province": "Barcelona", "provinceCode": "B", "zip": "08036"}}
{"address": {"address1": "Gran Via de les Corts Catalanes 999", "address2": null, "city": "Barcelona", "country": "Spain", "latitude": 41.4130827, "longitude": 2.198607, "province": "Barcelona", "provinceCode": "B", "zip": "08020"}}
{"address": {"address1": null, "address2": null, "city": "Cangas del Narcea", "country": "Spain", "latitude": 43.1784595, "longitude": -6.5489836, "province": "Asturias", "provinceCode": "O", "zip": "33800"}}
{"address": {"address1": "Gran Via de les Corts Catalanes 845", "address2": null, "city": "Barcelona", "country": "Spain", "latitude": 41.4058825, "longitude": 2.1898204, "province": "Barcelona", "provinceCode": "B", "zip": "08004"}}
{"address": {"address1": "Calle del Pr\u00edncipe de Vergara 205", "address2": null, "city": "Madrid", "country": "Spain", "latitude": 40.4497148, "longitude": -3.6785267, "province": "Madrid", "provinceCode": "M", "zip": "28002"}}
{"address": {"address1": "Calle de N\u00fa\u00f1ez de Balboa 116", "address2": null, "city": "Madrid", "country": "Spain", "latitude": 40.4371529, "longitude": -3.6816768, "province": "Madrid", "provinceCode": "M", "zip": "28006"}}
{"address": {"address1": null, "address2": null, "city": "Alhaur\u00edn de la Torre", "country": "Spain", "latitude": 36.662093, "longitude": -4.572759800000001, "province": "M\u00e1laga", "provinceCode": "MA", "zip": "29130"}}
{"address": {"address1": "Carrer de la Diputaci\u00f3 239", "address2": null, "city": "Barcelona", "country": "Spain", "latitude": 41.38881, "longitude": 2.164544, "province": "Barcelona", "provinceCode": "B", "zip": "08007"}}
{"address": {"address1": "Calle de Santa Engracia 128", "address2": null, "city": "Madrid", "country": "Spain", "latitude": 40.441724, "longitude": -3.7014559, "province": "Madrid", "provinceCode": "M", "zip": "28003"}}
{"address": {"address1": "Calle del Doctor Esquerdo 177", "address2": null, "city": "Madrid", "country": "Spain", "latitude": 40.4059247, "longitude": -3.6703507, "province": "Madrid", "provinceCode": "M", "zip": "28007"}}
{"address": {"address1": "Gran Via de les Corts Catalanes 968", "address2": null, "city": "Barcelona", "country": "Spain", "latitude": 41.40989159999999, "longitude": 2.1964338, "province": "Barcelona", "provinceCode": "B", "zip": "08018"}}
{"address": {"address1": "Gran Via de les Corts Catalanes 684", "address2": null, "city": "Barcelona", "country": "Spain", "latitude": 41.3926954, "longitude": 2.1734051, "province": "Barcelona", "provinceCode": "B", "zip": "08010"}}
{"address": {"address1": "Carrer del Doctor Roux 76", "address2": null, "city": "Barcelona", "country": "Spain", "latitude": 41.3993112, "longitude": 2.1290479, "province": "Barcelona", "provinceCode": "B", "zip": "08017"}}
{"address": {"address1": "Gran Via de les Corts Catalanes 618", "address2": null, "city": "Barcelona", "country": "Spain", "latitude": 41.38771759999999, "longitude": 2.1666298, "province": "Barcelona", "provinceCode": "B", "zip": "08007"}}
{"address": {"address1": "Calle de Antonio L\u00f3pez 234", "address2": null, "city": "Madrid", "country": "Spain", "latitude": 40.384502, "longitude": -3.69613, "province": "Madrid", "provinceCode": "M", "zip": "28026"}}
{"address": {"address1": "Gran Via de les Corts Catalanes 428", "address2": null, "city": "Barcelona", "country": "Spain", "latitude": 41.377811, "longitude": 2.1533684, "province": "Barcelona", "provinceCode": "B", "zip": "08015"}}
{"address": {"address1": "Gran Via de les Corts Catalanes 969", "address2": null, "city": "Barcelona", "country": "Spain", "latitude": 41.4119652, "longitude": 2.1971339, "province": "Barcelona", "provinceCode": "B", "zip": "08018"}}
{"address": {"address1": "Carrer Ramon Llull 783", "address2": null, "city": "Les Pinedes de l'Armengol", "country": "Spain", "latitude": 41.5124847, "longitude": 1.62127, "province": "Barcelona", "provinceCode": "B", "zip": "08789"}}
{"address": {"address1": "Gran Via de les Corts Catalanes 593", "address2": null, "city": "Barcelona", "country": "Spain", "latitude": 41.3881232, "longitude": 2.1658621, "province": "Barcelona", "provinceCode": "B", "zip": "08007"}}
{"address": {"address1": "Gran Via de les Corts Catalanes 694", "address2": null, "city": "Barcelona", "country": "Spain", "latitude": 41.3933069, "longitude": 2.1741729, "province": "Barcelona", "provinceCode": "B", "zip": "08010"}}
{"address": {"address1": "Gran Via de les Corts Catalanes 976", "address2": null, "city": "Barcelona", "country": "Spain", "latitude": 41.4103056, "longitude": 2.1969458, "province": "Barcelona", "provinceCode": "B", "zip": "08018"}}
{"address": {"address1": null, "address2": null, "city": "Oviedo", "country": "Spain", "latitude": 43.3883059, "longitude": -5.8301092, "province": "Asturias", "provinceCode": "O", "zip": "33011"}}
{"address": {"address1": "Gran Via de les Corts Catalanes 560", "address2": null, "city": "Barcelona", "country": "Spain", "latitude": 41.3834692, "longitude": 2.1607944, "province": "Barcelona", "provinceCode": "B", "zip": "08011"}}
{"address": {"address1": "Gran Via de les Corts Catalanes 963", "address2": null, "city": "Barcelona", "country": "Spain", "latitude": 41.411594, "longitude": 2.1966934, "province": "Barcelona", "provinceCode": "B", "zip": "08018"}}
{"address": {"address1": null, "address2": null, "city": "Carcastillo", "country": "Spain", "latitude": 42.3553915, "longitude": -1.4338047, "province": "Navarre", "provinceCode": "NA", "zip": "31310"}}
{"address": {"address1": "Gran Via de les Corts Catalanes 556", "address2": null, "city": "Barcelona", "country": "Spain", "latitude": 41.3832687, "longitude": 2.1608149, "province": "Barcelona", "provinceCode": "B", "zip": "08011"}}
{"address": {"address1": null, "address2": null, "city": "Outeiro de Rei", "country": "Spain", "latitude": 43.12165220000001, "longitude": -7.5843171, "province": "Lugo", "provinceCode": "LU", "zip": "27150"}}
{"address": {"address1": "Gran Via de les Corts Catalanes 656", "address2": null, "city": "Barcelona", "country": "Spain", "latitude": 41.39084760000001, "longitude": 2.1707755, "province": "Barcelona", "provinceCode": "B", "zip": "08010"}}
{"address": {"address1": "Avenida de la Constituci\u00f3n 82", "address2": null, "city": "Torrej\u00f3n de Ardoz", "country": "Spain", "latitude": 40.4564375, "longitude": -3.4748468, "province": "Madrid", "provinceCode": "M", "zip": "28850"}}
{"address": {"address1": "Carrer de Muntaner 379", "address2": null, "city": "Barcelona", "country": "Spain", "latitude": 41.3991978, "longitude": 2.1424663, "province": "Barcelona", "provinceCode": "B", "zip": "08021"}}
{"address": {"address1": "Carrer de Val\u00e8ncia 233", "address2": null, "city": "Barcelona", "country": "Spain", "latitude": 41.39162719999999, "longitude": 2.1615441, "province": "Barcelona", "provinceCode": "B", "zip": "08007"}}
{"address": {"address1": "Gran Via de les Corts Catalanes 572", "address2": null, "city": "Barcelona", "country": "Spain", "latitude": 41.384181, "longitude": 2.1617679, "province": "Barcelona", "provinceCode": "B", "zip": "08011"}}
{"address": {"address1": "Calle Gregorio Perez de Mar\u00eda \"El Cainejo\" 2", "address2": "local", "city": "Le\u00f3n", "country": "Spain", "latitude": 42.6099459, "longitude": -5.593346299999999, "province": "Le\u00f3n", "provinceCode": "LE", "zip": "24010"}}
{"address": {"address1": "Carrer de l'Arxiduc Carles 137", "address2": null, "city": "Val\u00e8ncia", "country": "Spain", "latitude": 39.4581667, "longitude": -0.4013968, "province": "Valencia", "provinceCode": "V", "zip": "46014"}}
{"address": {"address1": null, "address2": null, "city": "Barcelona", "country": "Spain", "latitude": 41.3790881, "longitude": 2.1278398, "province": "Barcelona", "provinceCode": "B", "zip": "08028"}}
{"address": {"address1": null, "address2": null, "city": "Constant\u00ed", "country": "Spain", "latitude": 41.164264, "longitude": 1.1833043, "province": "Tarragona", "provinceCode": "T", "zip": "43120"}}
{"address": {"address1": "Gran Via de les Corts Catalanes 716", "address2": null, "city": "Barcelona", "country": "Spain", "latitude": 41.39580429999999, "longitude": 2.177609, "province": "Barcelona", "provinceCode": "B", "zip": "08013"}}
{"address": {"address1": null, "address2": null, "city": "Sant Quirze del Vall\u00e8s", "country": "Spain", "latitude": 41.5239187, "longitude": 2.0365036, "province": "Barcelona", "provinceCode": "B", "zip": "08194"}}
{"address": {"address1": "Gran Via de les Corts Catalanes 577", "address2": null, "city": "Barcelona", "country": "Spain", "latitude": 41.3853555, "longitude": 2.1621966, "province": "Barcelona", "provinceCode": "B", "zip": "08011"}}
{"address": {"address1": "Gran Via de les Corts Catalanes 679", "address2": null, "city": "Barcelona", "country": "Spain", "latitude": 41.3964979, "longitude": 2.1771291, "province": "Barcelona", "provinceCode": "B", "zip": "08013"}}
{"address": {"address1": null, "address2": null, "city": "Valencia", "country": "Spain", "latitude": 39.4845265, "longitude": -0.380721, "province": "Valencia", "provinceCode": "V", "zip": "46009"}}
{"address": {"address1": "Carrer de Proven\u00e7a 507", "address2": null, "city": "Barcelona", "country": "Spain", "latitude": 41.4074694, "longitude": 2.1781274, "province": "Barcelona", "provinceCode": "B", "zip": "08025"}}
{"address": {"address1": "Gran Via de les Corts Catalanes 832", "address2": null, "city": "Barcelona", "country": "Spain", "latitude": 41.4015808, "longitude": 2.1849663, "province": "Barcelona", "provinceCode": "B", "zip": "08013"}}
{"address": {"address1": "Carrer dels Sapadors 44", "address2": null, "city": "Val\u00e8ncia", "country": "Spain", "latitude": 39.4571152, "longitude": -0.3680138, "province": "Valencia", "provinceCode": "V", "zip": "46004"}}
{"address": {"address1": null, "address2": null, "city": "Villanueva de la Ca\u00f1ada", "country": "Spain", "latitude": 40.4539502, "longitude": -3.9980485, "province": "Madrid", "provinceCode": "M", "zip": "28691"}}
{"address": {"address1": null, "address2": null, "city": "San Crist\u00f3bal de La Laguna", "country": "Spain", "latitude": 28.4540218, "longitude": -16.3022339, "province": "Santa Cruz de Tenerife", "provinceCode": "TF", "zip": "38108"}}
{"address": {"address1": "Carrer del Consell de Cent 259", "address2": null, "city": "Barcelona", "country": "Spain", "latitude": 41.3870418, "longitude": 2.1598938, "province": "Barcelona", "provinceCode": "B", "zip": "08011"}}
{"address": {"address1": "Gran Via de les Corts Catalanes 603", "address2": null, "city": "Barcelona", "country": "Spain", "latitude": 41.3889715, "longitude": 2.1670424, "province": "Barcelona", "provinceCode": "B", "zip": "08007"}}
{"address": {"address1": "Gran Via de les Corts Catalanes 896", "address2": null, "city": "Barcelona", "country": "Spain", "latitude": 41.4070475, "longitude": 2.1922001, "province": "Barcelona", "provinceCode": "B", "zip": "08018"}}
{"address": {"address1": "Gran Via de les Corts Catalanes 792", "address2": null, "city": "Barcelona", "country": "Spain", "latitude": 41.3995639, "longitude": 2.1825429, "province": "Barcelona", "provinceCode": "B", "zip": "08013"}}
{"address": {"address1": "Gran Via de les Corts Catalanes 513", "address2": null, "city": "Barcelona", "country": "Spain", "latitude": 41.38178389999999, "longitude": 2.1575719, "province": "Barcelona", "provinceCode": "B", "zip": "08015"}}
{"address": {"address1": "Carrer del Doctor Trueta 183", "address2": null, "city": "Barcelona", "country": "Spain", "latitude": 41.39734869999999, "longitude": 2.2013215, "province": "Barcelona", "provinceCode": "B", "zip": "08005"}}
{"address": {"address1": "Gran Via de les Corts Catalanes 841", "address2": null, "city": "Barcelona", "country": "Spain", "latitude": 41.405767, "longitude": 2.1896143, "province": "Barcelona", "provinceCode": "B", "zip": "08018"}}
{"address": {"address1": "Gran Via de les Corts Catalanes 647", "address2": null, "city": "Barcelona", "country": "Spain", "latitude": 41.3927819, "longitude": 2.1719271, "province": "Barcelona", "provinceCode": "B", "zip": "08010"}}
{"address": {"address1": "Euskal Herria Plaza 21", "address2": null, "city": "Arrasate", "country": "Spain", "latitude": 43.0648877, "longitude": -2.4837184, "province": "Gipuzkoa", "provinceCode": "SS", "zip": "20500"}}
{"address": {"address1": "Gran Via de les Corts Catalanes 762", "address2": null, "city": "Barcelona", "country": "Spain", "latitude": 41.39793359999999, "longitude": 2.1800505, "province": "Barcelona", "provinceCode": "B", "zip": "08013"}}
{"address": {"address1": "Carrer de Proven\u00e7a 503", "address2": null, "city": "Barcelona", "country": "Spain", "latitude": 41.4072269, "longitude": 2.177958, "province": "Barcelona", "provinceCode": "B", "zip": "08025"}}
{"address": {"address1": null, "address2": null, "city": "M\u00e1laga", "country": "Spain", "latitude": 36.6819541, "longitude": -4.474826, "province": "M\u00e1laga", "provinceCode": "MA", "zip": "29004"}}
{"address": {"address1": "Carrer del Consell de Cent 333", "address2": null, "city": "Barcelona", "country": "Spain", "latitude": 41.39002780000001, "longitude": 2.164035, "province": "Barcelona", "provinceCode": "B", "zip": "08007"}}
{"address": {"address1": "Urbanitzaci\u00f3 els Vinyals 766", "address2": null, "city": "Sant Pere de Ribes", "country": "Spain", "latitude": 41.2674578, "longitude": 1.7532923, "province": "Barcelona", "provinceCode": "B", "zip": "08810"}}
{"address": {"address1": "Carrer de la Llacuna 164", "address2": null, "city": "Barcelona", "country": "Spain", "latitude": 41.4063651, "longitude": 2.1922157, "province": "Barcelona", "provinceCode": "B", "zip": "08018"}}
{"address": {"address1": "Carrer de Mallorca 272", "address2": null, "city": "Barcelona", "country": "Spain", "latitude": 41.3953476, "longitude": 2.164754, "province": "Barcelona", "provinceCode": "B", "zip": "08037"}}
{"address": {"address1": "Gran Via de les Corts Catalanes 511", "address2": null, "city": "Barcelona", "country": "Spain", "latitude": 41.3817277, "longitude": 2.1574376, "province": "Barcelona", "provinceCode": "B", "zip": "08015"}}
{"address": {"address1": "Gran Via de les Corts Catalanes 444", "address2": null, "city": "Barcelona", "country": "Spain", "latitude": 41.3783252, "longitude": 2.1539722, "province": "Barcelona", "provinceCode": "B", "zip": "08015"}}
{"address": {"address1": "Urbanizaci\u00f3n Buenos Aires 9085I", "address2": null, "city": "Les Salades", "country": "Spain", "latitude": 38.30834, "longitude": -0.6461, "province": "Alicante", "provinceCode": "A", "zip": "03295"}}
{"address": {"address1": null, "address2": null, "city": "Las Rozas de Madrid", "country": "Spain", "latitude": 40.512814, "longitude": -3.9113634, "province": "Madrid", "provinceCode": "M", "zip": "28232"}}
{"address": {"address1": "Calle del Doctor Esquerdo 83", "address2": null, "city": "Madrid", "country": "Spain", "latitude": 40.4182297, "longitude": -3.6689886, "province": "Madrid", "provinceCode": "M", "zip": "28007"}}
{"address": {"address1": "Gran Via de les Corts Catalanes 851", "address2": null, "city": "Barcelona", "country": "Spain", "latitude": 41.4063515, "longitude": 2.1903178, "province": "Barcelona", "provinceCode": "B", "zip": "08018"}}
{"address": {"address1": "Carrer de Muntaner 505", "address2": null, "city": "Barcelona", "country": "Spain", "latitude": 41.4031214, "longitude": 2.1370638, "province": "Barcelona", "provinceCode": "B", "zip": "08022"}}
{"address": {"address1": "Amezketa Bidea 905", "address2": null, "city": "Donostia", "country": "Spain", "latitude": 43.30806, "longitude": -2.01449, "province": "Gipuzkoa", "provinceCode": "SS", "zip": "20018"}}
{"address": {"address1": "Gran Via de les Corts Catalanes 567", "address2": null, "city": "Barcelona", "country": "Spain", "latitude": 41.3846009, "longitude": 2.161395, "province": "Barcelona", "provinceCode": "B", "zip": "08011"}}
{"address": {"address1": "Carrer de Batllevell 115", "address2": null, "city": "Sabadell", "country": "Spain", "latitude": 41.5573354, "longitude": 2.1077528, "province": "Barcelona", "provinceCode": "B", "zip": "08208"}}
{"address": {"address1": "Gran Via de les Corts Catalanes 937", "address2": null, "city": "Barcelona", "country": "Spain", "latitude": 41.4101538, "longitude": 2.1950387, "province": "Barcelona", "provinceCode": "B", "zip": "08018"}}
{"address": {"address1": "Carrer Carretera de Penelles 5", "address2": null, "city": "Castellser\u00e0", "country": "Spain", "latitude": 41.74839739999999, "longitude": 0.9846100999999999, "province": "Lleida", "provinceCode": "L", "zip": "25334"}}
{"address": {"address1": null, "address2": null, "city": "Illescas", "country": "Spain", "latitude": 40.1331357, "longitude": -3.8349976, "province": "Toledo", "provinceCode": "TO", "zip": "45200"}}
{"address": {"address1": "Calle de Arturo Soria 243", "address2": null, "city": "Madrid", "country": "Spain", "latitude": 40.4646456, "longitude": -3.6662454, "province": "Madrid", "provinceCode": "M", "zip": "28033"}}
{"address": {"address1": "Calle de Coches Local 43", "address2": null, "city": "Almer\u00eda", "country": "Spain", "latitude": 36.8357517, "longitude": -2.4829101, "province": "Almer\u00eda", "provinceCode": "AL", "zip": "04002"}}
{"address": {"address1": "Carrer de la Marina 255", "address2": null, "city": "Barcelona", "country": "Spain", "latitude": 41.4045038, "longitude": 2.1741441, "province": "Barcelona", "provinceCode": "B", "zip": "08025"}}
{"address": {"address1": null, "address2": null, "city": "Puente La Reina \u2013 Gares", "country": "Spain", "latitude": 42.7224868, "longitude": -1.8220818, "province": "Navarre", "provinceCode": "NA", "zip": "31100"}}
{"address": {"address1": "Carrer de Mallorca 218", "address2": null, "city": "Barcelona", "country": "Spain", "latitude": 41.39119729999999, "longitude": 2.1594333, "province": "Barcelona", "provinceCode": "B", "zip": "08008"}}
{"address": {"address1": "Gran Via de les Corts Catalanes 954", "address2": null, "city": "Barcelona", "country": "Spain", "latitude": 41.409393, "longitude": 2.195877, "province": "Barcelona", "provinceCode": "B", "zip": "08018"}}
{"address": {"address1": "Gran Via de les Corts Catalanes 923", "address2": null, "city": "Barcelona", "country": "Spain", "latitude": 41.409767, "longitude": 2.1945308, "province": "Barcelona", "provinceCode": "B", "zip": "08018"}}
{"address": {"address1": "Carrer de Joan G\u00fcell 149", "address2": null, "city": "Barcelona", "country": "Spain", "latitude": 41.3826625, "longitude": 2.1313299, "province": "Barcelona", "provinceCode": "B", "zip": "08028"}}
{"address": {"address1": "Carrer de Sant Lloren\u00e7 91", "address2": "baixos", "city": "Barcelona", "country": "Spain", "latitude": 41.6023673, "longitude": 2.0237482, "province": "Barcelona", "provinceCode": "B", "zip": "08230"}}
{"address": {"address1": "Avinguda de la Granvia de l\u2019Hospitalet 144", "address2": null, "city": "L'Hospitalet de Llobregat", "country": "Spain", "latitude": 41.3462105, "longitude": 2.1086491, "province": "Barcelona", "provinceCode": "B", "zip": "08907"}}
{"address": {"address1": "Gran Via de les Corts Catalanes 562", "address2": null, "city": "Barcelona", "country": "Spain", "latitude": 41.383719, "longitude": 2.1612888, "province": "Barcelona", "provinceCode": "B", "zip": "08011"}}
{"address": {"address1": "Gran Via de les Corts Catalanes 850", "address2": null, "city": "Barcelona", "country": "Spain", "latitude": 41.4050474, "longitude": 2.1895224, "province": "Barcelona", "provinceCode": "B", "zip": "08018"}}
{"address": {"address1": null, "address2": null, "city": "Ponte Caldelas", "country": "Spain", "latitude": 42.4024765, "longitude": -8.495222799999999, "province": "Pontevedra", "provinceCode": "PO", "zip": "36820"}}
{"address": {"address1": "Paseo de la Castellana 207", "address2": null, "city": "Madrid", "country": "Spain", "latitude": 40.4697163, "longitude": -3.6888801, "province": "Madrid", "provinceCode": "M", "zip": "28046"}}
{"address": {"address1": "Travessera de Gr\u00e0cia 318", "address2": null, "city": "Barcelona", "country": "Spain", "latitude": 41.407873, "longitude": 2.1685439, "province": "Barcelona", "provinceCode": "B", "zip": "08025"}}
{"address": {"address1": "Gran Via de les Corts Catalanes 541", "address2": null, "city": "Barcelona", "country": "Spain", "latitude": 41.3834572, "longitude": 2.1596785, "province": "Barcelona", "provinceCode": "B", "zip": "08011"}}
{"address": {"address1": "Gran Via de les Corts Catalanes 774", "address2": null, "city": "Barcelona", "country": "Spain", "latitude": 41.3984594, "longitude": 2.1809686, "province": "Barcelona", "provinceCode": "B", "zip": "08013"}}
{"address": {"address1": "Gran Via de les Corts Catalanes 580", "address2": null, "city": "Barcelona", "country": "Spain", "latitude": 41.3846825, "longitude": 2.1626188, "province": "Barcelona", "provinceCode": "B", "zip": "08011"}}
{"address": {"address1": "799-Alexandre Rossell\u00f3 - \u00c0rea d'intercanvi Sindicat", "address2": null, "city": "Palma", "country": "Spain", "latitude": 39.572158, "longitude": 2.656608, "province": "Illes Balears", "provinceCode": "PM", "zip": "07002"}}
{"address": {"address1": "Gran Via de les Corts Catalanes 604", "address2": null, "city": "Barcelona", "country": "Spain", "latitude": 41.3868562, "longitude": 2.1653453, "province": "Barcelona", "provinceCode": "B", "zip": "08007"}}
{"address": {"address1": "Avenida del Guadalquivir 788", "address2": null, "city": "Cotos de Monterrey", "country": "Spain", "latitude": 40.8015754, "longitude": -3.5965559, "province": "Madrid", "provinceCode": "M", "zip": "28729"}}
{"address": {"address1": "Gran Via de les Corts Catalanes 870", "address2": null, "city": "Barcelona", "country": "Spain", "latitude": 41.405756, "longitude": 2.1904821, "province": "Barcelona", "provinceCode": "B", "zip": "08018"}}
{"address": {"address1": null, "address2": null, "city": "Arroyo de la Encomienda", "country": "Spain", "latitude": 41.626038, "longitude": -4.795052999999999, "province": "Valladolid", "provinceCode": "VA", "zip": "47195"}}
{"address": {"address1": null, "address2": null, "city": "Ourense", "country": "Spain", "latitude": 42.3342916, "longitude": -7.8776023, "province": "Province of Ourense", "provinceCode": "OR", "zip": "32002"}}
{"address": {"address1": "Calle del Pr\u00edncipe de Vergara 80", "address2": null, "city": "Madrid", "country": "Spain", "latitude": 40.4352956, "longitude": -3.678942799999999, "province": "Madrid", "provinceCode": "M", "zip": "28006"}}
{"address": {"address1": "Avenida Castilla 6", "address2": null, "city": "Cheste", "country": "Spain", "latitude": 39.491453, "longitude": -0.6850661, "province": "Valencia", "provinceCode": "V", "zip": "46380"}}
{"address": {"address1": "Gran Via de les Corts Catalanes 274", "address2": null, "city": "Barcelona", "country": "Spain", "latitude": 41.3712141, "longitude": 2.1446437, "province": "Barcelona", "provinceCode": "B", "zip": "08004"}}
{"address": {"address1": "Calle del Pr\u00edncipe de Vergara 268", "address2": null, "city": "Madrid", "country": "Spain", "latitude": 40.457902, "longitude": -3.676611, "province": "Madrid", "provinceCode": "M", "zip": "28016"}}
{"address": {"address1": "Carrer del Comte Borrell 215", "address2": null, "city": "Barcelona", "country": "Spain", "latitude": 41.3857885, "longitude": 2.1513175, "province": "Barcelona", "provinceCode": "B", "zip": "08029"}}
{"address": {"address1": "Gran Via de les Corts Catalanes 539", "address2": null, "city": "Barcelona", "country": "Spain", "latitude": 41.3834195, "longitude": 2.1596017, "province": "Barcelona", "provinceCode": "B", "zip": "08011"}}
{"address": {"address1": null, "address2": null, "city": "Lasarte-Oria", "country": "Spain", "latitude": 43.2586789, "longitude": -2.0126276, "province": "Gipuzkoa", "provinceCode": "SS", "zip": "20160"}}
{"address": {"address1": "R\u00faa das Dores 19", "address2": null, "city": "Arz\u00faa", "country": "Spain", "latitude": 42.9257472, "longitude": -8.1636616, "province": "A Coru\u00f1a", "provinceCode": "C", "zip": "15810"}}
{"address": {"address1": "Carrer de Joaqu\u00edn Costa 4", "address2": null, "city": "Barcelona", "country": "Spain", "latitude": 41.3810806, "longitude": 2.1674722, "province": "Barcelona", "provinceCode": "B", "zip": "08001"}}
{"address": {"address1": "Gran Via de les Corts Catalanes 524", "address2": null, "city": "Barcelona", "country": "Spain", "latitude": 41.3821464, "longitude": 2.159107, "province": "Barcelona", "provinceCode": "B", "zip": "08011"}}
{"address": {"address1": "Carrer del Rossell\u00f3 372", "address2": null, "city": "Barcelona", "country": "Spain", "latitude": 41.4039213, "longitude": 2.1716352, "province": "Barcelona", "provinceCode": "B", "zip": "08025"}}
{"address": {"address1": "Gran Via de les Corts Catalanes 659", "address2": null, "city": "Barcelona", "country": "Spain", "latitude": 41.39372910000001, "longitude": 2.1735582, "province": "Barcelona", "provinceCode": "B", "zip": "08010"}}
{"address": {"address1": "Carrer de Proven\u00e7a 385", "address2": null, "city": "Barcelona", "country": "Spain", "latitude": 41.402423, "longitude": 2.170929, "province": "Barcelona", "provinceCode": "B", "zip": "08025"}}
{"address": {"address1": "Gran Via de les Corts Catalanes 561", "address2": null, "city": "Barcelona", "country": "Spain", "latitude": 41.3844396, "longitude": 2.1609684, "province": "Barcelona", "provinceCode": "B", "zip": "08011"}}
{"address": {"address1": "Morlans Pasealekua 918", "address2": null, "city": "Donostia", "country": "Spain", "latitude": 43.3080876, "longitude": -1.9872495, "province": "Gipuzkoa", "provinceCode": "SS", "zip": "20009"}}
{"address": {"address1": "Gran Via de les Corts Catalanes 588", "address2": null, "city": "Barcelona", "country": "Spain", "latitude": 41.38510429999999, "longitude": 2.1630793, "province": "Barcelona", "provinceCode": "B", "zip": "08011"}}
{"address": {"address1": "Gran Via de les Corts Catalanes 936", "address2": null, "city": "Barcelona", "country": "Spain", "latitude": 41.408567, "longitude": 2.1946532, "province": "Barcelona", "provinceCode": "B", "zip": "08018"}}
{"address": {"address1": "Calle Lisboa 7", "address2": null, "city": "M\u00e1laga", "country": "Spain", "latitude": 36.703303, "longitude": -4.4735322, "province": "M\u00e1laga", "provinceCode": "MA", "zip": "29006"}}
{"address": {"address1": "Carrer de les Ramelleres 17", "address2": null, "city": "Barcelona", "country": "Spain", "latitude": 41.3841244, "longitude": 2.1686693, "province": "Barcelona", "provinceCode": "B", "zip": "08001"}}
{"address": {"address1": "Gran Via de les Corts Catalanes 662", "address2": null, "city": "Barcelona", "country": "Spain", "latitude": 41.3911606, "longitude": 2.1711438, "province": "Barcelona", "provinceCode": "B", "zip": "08010"}}
{"address": {"address1": "Carrer de Mallorca 277", "address2": null, "city": "Barcelona", "country": "Spain", "latitude": 41.39500820000001, "longitude": 2.1636675, "province": "Barcelona", "provinceCode": "B", "zip": "08037"}}
{"address": {"address1": "Gran Via de les Corts Catalanes 934", "address2": null, "city": "Barcelona", "country": "Spain", "latitude": 41.4085188, "longitude": 2.1945444, "province": "Barcelona", "provinceCode": "B", "zip": "08018"}}
{"address": {"address1": "Gran Via de les Corts Catalanes 859", "address2": null, "city": "Barcelona", "country": "Spain", "latitude": 41.4071796, "longitude": 2.1914784, "province": "Barcelona", "provinceCode": "B", "zip": "08018"}}
{"address": {"address1": "Carrer Jaume Oliver Frontera", "address2": null, "city": "Santa Mar\u00eda del Camino", "country": "Spain", "latitude": 39.6468732, "longitude": 2.7690045, "province": "Illes Balears", "provinceCode": "PM", "zip": "07320"}}
{"address": {"address1": "Calle de L\u00f3pez de Hoyos 344", "address2": null, "city": "Madrid", "country": "Spain", "latitude": 40.4575669, "longitude": -3.6604587, "province": "Madrid", "provinceCode": "M", "zip": "28043"}}
{"address": {"address1": "Calle Puerto de Canencia 958", "address2": null, "city": "Cotos de Monterrey", "country": "Spain", "latitude": 40.7913222, "longitude": -3.6125938, "province": "Madrid", "provinceCode": "M", "zip": "28729"}}
{"address": {"address1": "Calle de los Hermanos Garc\u00eda Noblejas 89", "address2": null, "city": "Madrid", "country": "Spain", "latitude": 40.423497, "longitude": -3.6270681, "province": "Madrid", "provinceCode": "M", "zip": "28037"}}
{"address": {"address1": "Gran Via de les Corts Catalanes 810", "address2": null, "city": "Barcelona", "country": "Spain", "latitude": 41.4004882, "longitude": 2.183431, "province": "Barcelona", "provinceCode": "B", "zip": "08013"}}
{"address": {"address1": "Carrer del Consell de Cent 264", "address2": null, "city": "Barcelona", "country": "Spain", "latitude": 41.3876587, "longitude": 2.1617131, "province": "Barcelona", "provinceCode": "B", "zip": "08011"}}
{"address": {"address1": "Carrer de Viladomat 124", "address2": null, "city": "Barcelona", "country": "Spain", "latitude": 41.3810352, "longitude": 2.1559172, "province": "Barcelona", "provinceCode": "B", "zip": "08015"}}
{"address": {"address1": "Gran Via de les Corts Catalanes 641", "address2": null, "city": "Barcelona", "country": "Spain", "latitude": 41.3922444, "longitude": 2.1713897, "province": "Barcelona", "provinceCode": "B", "zip": "08010"}}
{"address": {"address1": "Carrer de la Diputaci\u00f3 424", "address2": null, "city": "Barcelona", "country": "Spain", "latitude": 41.3995772, "longitude": 2.1795043, "province": "Barcelona", "provinceCode": "B", "zip": "08013"}}
{"address": {"address1": "Gran Via de les Corts Catalanes 828", "address2": null, "city": "Barcelona", "country": "Spain", "latitude": 41.4013764, "longitude": 2.1846397, "province": "Barcelona", "provinceCode": "B", "zip": "08013"}}
{"address": {"address1": "Carrer de la Selva de Mar 129", "address2": null, "city": "Barcelona", "country": "Spain", "latitude": 41.4127611, "longitude": 2.2034528, "province": "Barcelona", "provinceCode": "B", "zip": "08020"}}
{"address": {"address1": "Carrer de la Diputaci\u00f3 304", "address2": null, "city": "Barcelona", "country": "Spain", "latitude": 41.39349180000001, "longitude": 2.17162, "province": "Barcelona", "provinceCode": "B", "zip": "08009"}}
{"address": {"address1": "Gran Via de les Corts Catalanes 917", "address2": null, "city": "Barcelona", "country": "Spain", "latitude": 41.4094432, "longitude": 2.1940178, "province": "Barcelona", "provinceCode": "B", "zip": "08018"}}
{"address": {"address1": null, "address2": null, "city": "Almussafes", "country": "Spain", "latitude": 39.28358170000001, "longitude": -0.4078058, "province": "Valencia", "provinceCode": "V", "zip": "46440"}}
{"address": {"address1": "Gran Via de les Corts Catalanes 596", "address2": null, "city": "Barcelona", "country": "Spain", "latitude": 41.38651660000001, "longitude": 2.1649601, "province": "Barcelona", "provinceCode": "B", "zip": "08007"}}
{"address": {"address1": "Gran Via de les Corts Catalanes 995", "address2": null, "city": "Barcelona", "country": "Spain", "latitude": 41.4129319, "longitude": 2.1984391, "province": "Barcelona", "provinceCode": "B", "zip": "08020"}}
{"address": {"address1": null, "address2": null, "city": "Abanto y Ci\u00e9rvana-Abanto Zierbena", "country": "Spain", "latitude": 43.3121887, "longitude": -3.0826673, "province": "Bizkaia", "provinceCode": "BI", "zip": "48500"}}
{"address": {"address1": "Gran Via de les Corts Catalanes 533", "address2": null, "city": "Barcelona", "country": "Spain", "latitude": 41.3829318, "longitude": 2.1589535, "province": "Barcelona", "provinceCode": "B", "zip": "08015"}}
{"address": {"address1": "Passeig del Vint-i-dos de Juliol 796", "address2": null, "city": "Terrassa", "country": "Spain", "latitude": 41.5679668, "longitude": 2.0321365, "province": "Barcelona", "provinceCode": "B", "zip": "08222"}}
{"address": {"address1": "Avenida Modesto Lafuente 12", "address2": "bajo 3", "city": "Palencia", "country": "Spain", "latitude": 42.0035616, "longitude": -4.528083899999999, "province": "Palencia", "provinceCode": "P", "zip": "34002"}}
{"address": {"address1": "Gran Via de les Corts Catalanes 454", "address2": null, "city": "Barcelona", "country": "Spain", "latitude": 41.378789, "longitude": 2.1548342, "province": "Barcelona", "provinceCode": "B", "zip": "08015"}}
{"address": {"address1": "Avenida do Aeroporto 772", "address2": null, "city": "Vigo", "country": "Spain", "latitude": 42.2235327, "longitude": -8.6388331, "province": "Pontevedra", "provinceCode": "PO", "zip": "36318"}}
{"address": {"address1": null, "address2": null, "city": "Marchena", "country": "Spain", "latitude": 37.3046946, "longitude": -5.3520876, "province": "Seville", "provinceCode": "SE", "zip": "41620"}}
{"address": {"address1": "Avinguda del Carrilet 219", "address2": null, "city": "L'Hospitalet de Llobregat", "country": "Spain", "latitude": 41.3605285, "longitude": 2.1103469, "province": "Barcelona", "provinceCode": "B", "zip": "08907"}}
{"address": {"address1": "Gran Via de les Corts Catalanes 493", "address2": null, "city": "Barcelona", "country": "Spain", "latitude": 41.3810066, "longitude": 2.1563969, "province": "Barcelona", "provinceCode": "B", "zip": "08015"}}
{"address": {"address1": "Paseo de la Castellana 86", "address2": null, "city": "Madrid", "country": "Spain", "latitude": 40.4427877, "longitude": -3.690826, "province": "Madrid", "provinceCode": "M", "zip": "28046"}}
{"address": {"address1": "Carrer de Val\u00e8ncia 494", "address2": null, "city": "Barcelona", "country": "Spain", "latitude": 41.4046717, "longitude": 2.1794146, "province": "Barcelona", "provinceCode": "B", "zip": "08013"}}
{"address": {"address1": "Gran Via de les Corts Catalanes 872", "address2": null, "city": "Barcelona", "country": "Spain", "latitude": 41.4058441, "longitude": 2.1906698, "province": "Barcelona", "provinceCode": "B", "zip": "08018"}}
{"address": {"address1": "Carrer de Mallorca 236", "address2": null, "city": "Barcelona", "country": "Spain", "latitude": 41.392402, "longitude": 2.160929, "province": "Barcelona", "provinceCode": "B", "zip": "08008"}}
{"address": {"address1": "Calle Puerto de Somiedo 857", "address2": null, "city": "Cotos de Monterrey", "country": "Spain", "latitude": 40.7889965, "longitude": -3.6066244, "province": "Madrid", "provinceCode": "M", "zip": "28729"}}
{"address": {"address1": "Travessera de Gr\u00e0cia 264", "address2": null, "city": "Barcelona", "country": "Spain", "latitude": 41.4061487, "longitude": 2.165689, "province": "Barcelona", "provinceCode": "B", "zip": "08025"}}
{"address": {"address1": "Carrer de Mallorca 401", "address2": null, "city": "Barcelona", "country": "Spain", "latitude": 41.40316079999999, "longitude": 2.1743265, "province": "Barcelona", "provinceCode": "B", "zip": "08013"}}
{"address": {"address1": "Gran Via de les Corts Catalanes 581", "address2": null, "city": "Barcelona", "country": "Spain", "latitude": 41.3855248, "longitude": 2.1623904, "province": "Barcelona", "provinceCode": "B", "zip": "08011"}}
{"address": {"address1": "Gran Via de les Corts Catalanes 594", "address2": null, "city": "Barcelona", "country": "Spain", "latitude": 41.3864206, "longitude": 2.1648641, "province": "Barcelona", "provinceCode": "B", "zip": "08007"}}
{"address": {"address1": "Gran Via de les Corts Catalanes 764", "address2": null, "city": "Barcelona", "country": "Spain", "latitude": 41.3982098, "longitude": 2.1807191, "province": "Barcelona", "provinceCode": "B", "zip": "08013"}}
{"address": {"address1": "Gran Via de les Corts Catalanes 856", "address2": null, "city": "Barcelona", "country": "Spain", "latitude": 41.405211, "longitude": 2.1897987, "province": "Barcelona", "provinceCode": "B", "zip": "08018"}}
{"address": {"address1": "Avenida de las Erillas 955", "address2": null, "city": "Camas", "country": "Spain", "latitude": 37.3862803, "longitude": -6.0287483, "province": "Sevilla", "provinceCode": "SE", "zip": "41910"}}
{"address": {"address1": "Gran Via de les Corts Catalanes 966", "address2": null, "city": "Barcelona", "country": "Spain", "latitude": 41.4098778, "longitude": 2.1964149, "province": "Barcelona", "provinceCode": "B", "zip": "08018"}}
{"address": {"address1": "Avenida del Cardenal Herrera Oria 242", "address2": null, "city": "Madrid", "country": "Spain", "latitude": 40.4829176, "longitude": -3.7185609, "province": "Madrid", "provinceCode": "M", "zip": "28035"}}
{"address": {"address1": "Paseo de la Castellana 95", "address2": null, "city": "Madrid", "country": "Spain", "latitude": 40.4516224, "longitude": -3.6913767, "province": "Madrid", "provinceCode": "M", "zip": "28046"}}
{"address": {"address1": null, "address2": null, "city": "Castrelo de Mi\u00f1o", "country": "Spain", "latitude": 42.2972894, "longitude": -8.057429899999999, "province": "Ourense", "provinceCode": "OR", "zip": "32430"}}
{"address": {"address1": "Gran Via de les Corts Catalanes 680", "address2": null, "city": "Barcelona", "country": "Spain", "latitude": 41.392527, "longitude": 2.173002, "province": "Barcelona", "provinceCode": "B", "zip": "08010"}}
{"address": {"address1": "Calle Puerto del Escudo 838", "address2": null, "city": "Cotos de Monterrey", "country": "Spain", "latitude": 40.7896186, "longitude": -3.6043159, "province": "Madrid", "provinceCode": "M", "zip": "28729"}}
{"address": {"address1": "Gran Via de les Corts Catalanes 848", "address2": null, "city": "Barcelona", "country": "Spain", "latitude": 41.4048666, "longitude": 2.1893284, "province": "Barcelona", "provinceCode": "B", "zip": "08018"}}
{"address": {"address1": "Carrer de Sep\u00falveda 173", "address2": null, "city": "Barcelona", "country": "Spain", "latitude": 41.3835117, "longitude": 2.1624652, "province": "Barcelona", "provinceCode": "B", "zip": "08011"}}
{"address": {"address1": "Calle del Pr\u00edncipe de Vergara 134", "address2": null, "city": "Madrid", "country": "Spain", "latitude": 40.4436876, "longitude": -3.6781641, "province": "Madrid", "provinceCode": "M", "zip": "28002"}}
{"address": {"address1": "Calle Carpihuelo 4", "address2": null, "city": "Carbajosa de la Sagrada", "country": "Spain", "latitude": 40.9357744, "longitude": -5.6499441, "province": "Salamanca", "provinceCode": "SA", "zip": "37188"}}
{"address": {"address1": "Carrer de Sant Antoni Maria Claret 135", "address2": null, "city": "Barcelona", "country": "Spain", "latitude": 41.4100614, "longitude": 2.1723517, "province": "Barcelona", "provinceCode": "B", "zip": "08027"}}
{"address": {"address1": "Carrer del Rossell\u00f3 265", "address2": null, "city": "Barcelona", "country": "Spain", "latitude": 41.396232, "longitude": 2.1609626, "province": "Barcelona", "provinceCode": "B", "zip": "08008"}}
{"address": {"address1": "Gran Via de les Corts Catalanes 655", "address2": null, "city": "Barcelona", "country": "Spain", "latitude": 41.3933137, "longitude": 2.1727717, "province": "Barcelona", "provinceCode": "B", "zip": "08010"}}
{"address": {"address1": "Avenida Ciudad de Melilla 40", "address2": null, "city": "Benalm\u00e1dena", "country": "Spain", "latitude": 36.5963376, "longitude": -4.5317497, "province": "M\u00e1laga", "provinceCode": "MA", "zip": "29631"}}
{"address": {"address1": "Carrer del Consell de Cent 445", "address2": null, "city": "Barcelona", "country": "Spain", "latitude": 41.3980433, "longitude": 2.1745968, "province": "Barcelona", "provinceCode": "B", "zip": "08013"}}
{"address": {"address1": "Gran Via de les Corts Catalanes 780", "address2": null, "city": "Barcelona", "country": "Spain", "latitude": 41.3991922, "longitude": 2.1817881, "province": "Barcelona", "provinceCode": "B", "zip": "08013"}}
{"address": {"address1": "Carrer Major 33", "address2": null, "city": "Esterri d'\u00c0neu", "country": "Spain", "latitude": 42.6278835, "longitude": 1.1231769, "province": "Lleida", "provinceCode": "L", "zip": "25580"}}
{"address": {"address1": "Gran Via de les Corts Catalanes 854", "address2": null, "city": "Barcelona", "country": "Spain", "latitude": 41.4054022, "longitude": 2.1899943, "province": "Barcelona", "provinceCode": "B", "zip": "08018"}}
{"address": {"address1": "Carrer del Consell de Cent 279", "address2": null, "city": "Barcelona", "country": "Spain", "latitude": 41.3879166, "longitude": 2.1610368, "province": "Barcelona", "provinceCode": "B", "zip": "08011"}}
{"address": {"address1": "Carrer del Rossell\u00f3 174", "address2": null, "city": "Barcelona", "country": "Spain", "latitude": 41.3920428, "longitude": 2.1560561, "province": "Barcelona", "provinceCode": "B", "zip": "08036"}}
{"address": {"address1": "Carrer de Proven\u00e7a 281", "address2": null, "city": "Barcelona", "country": "Spain", "latitude": 41.3963278, "longitude": 2.163422, "province": "Barcelona", "provinceCode": "B", "zip": "08037"}}
{"address": {"address1": "Carrer de Proven\u00e7a 312", "address2": null, "city": "Barcelona", "country": "Spain", "latitude": 41.3959873, "longitude": 2.1637126, "province": "Barcelona", "provinceCode": "B", "zip": "08037"}}
{"address": {"address1": "Gran Via de les Corts Catalanes 982", "address2": null, "city": "Barcelona", "country": "Spain", "latitude": 41.4104155, "longitude": 2.1972304, "province": "Barcelona", "provinceCode": "B", "zip": "08018"}}
{"address": {"address1": "Gran Via de les Corts Catalanes 864", "address2": null, "city": "Barcelona", "country": "Spain", "latitude": 41.4054151, "longitude": 2.1900696, "province": "Barcelona", "provinceCode": "B", "zip": "08018"}}
{"address": {"address1": "Gran Via de les Corts Catalanes 492", "address2": null, "city": "Barcelona", "country": "Spain", "latitude": 41.3804849, "longitude": 2.1569387, "province": "Barcelona", "provinceCode": "B", "zip": "08015"}}
{"address": {"address1": "Calle Puerto de Contreras 913", "address2": null, "city": "Calicanto", "country": "Spain", "latitude": 39.4319785, "longitude": -0.5663541000000001, "province": "Valencia", "provinceCode": "V", "zip": "46370"}}
{"address": {"address1": "Calle Casta\u00f1a-los Dolses 945", "address2": null, "city": "Orihuela", "country": "Spain", "latitude": 37.9283372, "longitude": -0.7559359999999999, "province": "Alicante", "provinceCode": "A", "zip": "03189"}}
{"address": {"address1": "Gran Via de les Corts Catalanes 961", "address2": null, "city": "Barcelona", "country": "Spain", "latitude": 41.4109572, "longitude": 2.1960747, "province": "Barcelona", "provinceCode": "B", "zip": "08018"}}
{"address": {"address1": "Gran Via de les Corts Catalanes 929", "address2": null, "city": "Barcelona", "country": "Spain", "latitude": 41.4099444, "longitude": 2.1947355, "province": "Barcelona", "provinceCode": "B", "zip": "08018"}}
{"address": {"address1": "Gran Via de les Corts Catalanes 552", "address2": null, "city": "Barcelona", "country": "Spain", "latitude": 41.3831542, "longitude": 2.1606614, "province": "Barcelona", "provinceCode": "B", "zip": "08011"}}
{"address": {"address1": "Sarrueta Pasealekua 902", "address2": null, "city": "Donostia", "country": "Spain", "latitude": 43.29757, "longitude": -1.95377, "province": "Gipuzkoa", "provinceCode": "SS", "zip": "20014"}}
{"address": {"address1": "Carrer de Proven\u00e7a 392", "address2": null, "city": "Barcelona", "country": "Spain", "latitude": 41.4013965, "longitude": 2.1705035, "province": "Barcelona", "provinceCode": "B", "zip": "08025"}}
{"address": {"address1": "Avinguda Diagonal 339", "address2": null, "city": "Barcelona", "country": "Spain", "latitude": 41.3982397, "longitude": 2.1676476, "province": "Barcelona", "provinceCode": "B", "zip": "08037"}}
{"address": {"address1": "Calle Puerto de Canencia 914", "address2": null, "city": "Cotos de Monterrey", "country": "Spain", "latitude": 40.78895, "longitude": -3.60945, "province": "Madrid", "provinceCode": "M", "zip": "28729"}}
{"address": {"address1": "Gran Via de les Corts Catalanes 623", "address2": null, "city": "Barcelona", "country": "Spain", "latitude": 41.3910243, "longitude": 2.1697006, "province": "Barcelona", "provinceCode": "B", "zip": "08007"}}
{"address": {"address1": "Gran Via de les Corts Catalanes 534", "address2": null, "city": "Barcelona", "country": "Spain", "latitude": 41.3824411, "longitude": 2.1594256, "province": "Barcelona", "provinceCode": "B", "zip": "08011"}}
{"address": {"address1": "Avenida Mar\u00eda \u00c1ngeles Ascanio Cullen 754", "address2": null, "city": "Amarilla Golf", "country": "Spain", "latitude": 28.0250492, "longitude": -16.6146843, "province": "Santa Cruz de Tenerife", "provinceCode": "TF", "zip": "38639"}}
{"address": {"address1": "Gran Via de les Corts Catalanes 548", "address2": null, "city": "Barcelona", "country": "Spain", "latitude": 41.3830404, "longitude": 2.1604695, "province": "Barcelona", "provinceCode": "B", "zip": "08011"}}
{"address": {"address1": "Avinguda de Josep Tarradellas 120", "address2": null, "city": "Barcelona", "country": "Spain", "latitude": 41.3906053, "longitude": 2.1440182, "province": "Barcelona", "provinceCode": "B", "zip": "08029"}}
{"address": {"address1": "Gran Via de les Corts Catalanes 426", "address2": null, "city": "Barcelona", "country": "Spain", "latitude": 41.3775643, "longitude": 2.1530437, "province": "Barcelona", "provinceCode": "B", "zip": "08015"}}
{"address": {"address1": "Gran Via de les Corts Catalanes 728", "address2": null, "city": "Barcelona", "country": "Spain", "latitude": 41.3966659, "longitude": 2.1785881, "province": "Barcelona", "provinceCode": "B", "zip": "08013"}}
{"address": {"address1": "Gran Via de les Corts Catalanes 683", "address2": null, "city": "Barcelona", "country": "Spain", "latitude": 41.3966096, "longitude": 2.1772384, "province": "Barcelona", "provinceCode": "B", "zip": "08013"}}
{"address": {"address1": "Gran Via de les Corts Catalanes 536", "address2": null, "city": "Barcelona", "country": "Spain", "latitude": 41.38243019999999, "longitude": 2.1596251, "province": "Barcelona", "provinceCode": "B", "zip": "08011"}}
{"address": {"address1": "Calle del Pr\u00edncipe de Vergara 87", "address2": null, "city": "Madrid", "country": "Spain", "latitude": 40.4363076, "longitude": -3.6796163, "province": "Madrid", "provinceCode": "M", "zip": "28006"}}
{"address": {"address1": "Gran Via de les Corts Catalanes 671", "address2": null, "city": "Barcelona", "country": "Spain", "latitude": 41.3962114, "longitude": 2.1767644, "province": "Barcelona", "provinceCode": "B", "zip": "08013"}}
{"address": {"address1": "Gran Via de les Corts Catalanes 608", "address2": null, "city": "Barcelona", "country": "Spain", "latitude": 41.3871637, "longitude": 2.1659197, "province": "Barcelona", "provinceCode": "B", "zip": "08007"}}
{"address": {"address1": "Calle de Guzm\u00e1n el Bueno 106", "address2": null, "city": "Madrid", "country": "Spain", "latitude": 40.44233639999999, "longitude": -3.7123951, "province": "Madrid", "provinceCode": "M", "zip": "28003"}}
{"address": {"address1": "Calle de Cea Berm\u00fadez 45", "address2": null, "city": "Madrid", "country": "Spain", "latitude": 40.438837, "longitude": -3.713489, "province": "Madrid", "provinceCode": "M", "zip": "28003"}}
{"address": {"address1": "Avenida Mar\u00eda \u00c1ngeles Ascanio Cullen 718", "address2": null, "city": "Amarilla Golf", "country": "Spain", "latitude": 28.0248898, "longitude": -16.6147441, "province": "Santa Cruz de Tenerife", "provinceCode": "TF", "zip": "38639"}}
{"address": {"address1": "Calle Valladolid 894", "address2": null, "city": "Casarrubios del Monte", "country": "Spain", "latitude": 40.2479641, "longitude": -4.0644951, "province": "Toledo", "provinceCode": "TO", "zip": "45950"}}
{"address": {"address1": "Gran Via de les Corts Catalanes 822", "address2": null, "city": "Barcelona", "country": "Spain", "latitude": 41.40105519999999, "longitude": 2.1843477, "province": "Barcelona", "provinceCode": "B", "zip": "08013"}}
{"address": {"address1": "Carrer d'Enric Granados 56", "address2": null, "city": "Barcelona", "country": "Spain", "latitude": 41.3915373, "longitude": 2.1576666, "province": "Barcelona", "provinceCode": "B", "zip": "08008"}}
{"address": {"address1": "Carrer de Mallorca 517", "address2": null, "city": "Barcelona", "country": "Spain", "latitude": 41.4084778, "longitude": 2.181679, "province": "Barcelona", "provinceCode": "B", "zip": "08026"}}
{"address": {"address1": "Gran Via de les Corts Catalanes 962", "address2": null, "city": "Barcelona", "country": "Spain", "latitude": 41.409715, "longitude": 2.196308, "province": "Barcelona", "provinceCode": "B", "zip": "08018"}}
{"address": {"address1": null, "address2": null, "city": "Bollullos de la Mitaci\u00f3n", "country": "Spain", "latitude": 37.318554, "longitude": -6.1633042, "province": "Seville", "provinceCode": "SE", "zip": "41110"}}
{"address": {"address1": "Carrer de Sant Sebasti\u00e0 10", "address2": null, "city": "Ciutadella de Menorca", "country": "Spain", "latitude": 40.0022698, "longitude": 3.8380065, "province": "Illes Balears", "provinceCode": "PM", "zip": "07760"}}
{"address": {"address1": "Puente del Cristo de la Expiraci\u00f3n 746", "address2": null, "city": "Sevilla", "country": "Spain", "latitude": 37.3908596, "longitude": -6.003843799999999, "province": "Sevilla", "provinceCode": "SE", "zip": "41001"}}
{"address": {"address1": "Paseo de la Castellana 89", "address2": null, "city": "Madrid", "country": "Spain", "latitude": 40.4496248, "longitude": -3.6919802, "province": "Madrid", "provinceCode": "M", "zip": "28046"}}
{"address": {"address1": "Gran Via de les Corts Catalanes 824", "address2": null, "city": "Barcelona", "country": "Spain", "latitude": 41.4012693, "longitude": 2.1843254, "province": "Barcelona", "provinceCode": "B", "zip": "08013"}}
{"address": {"address1": "Gran Via de les Corts Catalanes 759", "address2": null, "city": "Barcelona", "country": "Spain", "latitude": 41.4014624, "longitude": 2.1839008, "province": "Barcelona", "provinceCode": "B", "zip": "08013"}}
{"address": {"address1": "Carrer de Val\u00e8ncia 226", "address2": null, "city": "Barcelona", "country": "Spain", "latitude": 41.3899413, "longitude": 2.1599777, "province": "Barcelona", "provinceCode": "B", "zip": "08007"}}
{"address": {"address1": "Carrer del Roman\u00ed", "address2": null, "city": "Sant Antoni de Portmany", "country": "Spain", "latitude": 38.9674015, "longitude": 1.3364092, "province": "Illes Balears", "provinceCode": "PM", "zip": "07820"}}
{"address": {"address1": "Calle de Claudio Coello 141", "address2": null, "city": "Madrid", "country": "Spain", "latitude": 40.4359815, "longitude": -3.6855007, "province": "Madrid", "provinceCode": "M", "zip": "28006"}}
{"address": {"address1": "Gran Via de les Corts Catalanes 940", "address2": null, "city": "Barcelona", "country": "Spain", "latitude": 41.4087314, "longitude": 2.1949286, "province": "Barcelona", "provinceCode": "B", "zip": "08018"}}
{"address": {"address1": "Gran Via de les Corts Catalanes 924", "address2": null, "city": "Barcelona", "country": "Spain", "latitude": 41.4079696, "longitude": 2.1940163, "province": "Barcelona", "provinceCode": "B", "zip": "08018"}}
{"address": {"address1": "Gran Via de les Corts Catalanes 980", "address2": null, "city": "Barcelona", "country": "Spain", "latitude": 41.4104126, "longitude": 2.1972262, "province": "Barcelona", "provinceCode": "B", "zip": "08018"}}
{"address": {"address1": "Gran Via de les Corts Catalanes 574", "address2": null, "city": "Barcelona", "country": "Spain", "latitude": 41.38418679999999, "longitude": 2.1619279, "province": "Barcelona", "provinceCode": "B", "zip": "08011"}}
{"address": {"address1": "Gran Via de les Corts Catalanes 986", "address2": null, "city": "Barcelona", "country": "Spain", "latitude": 41.4107699, "longitude": 2.1979432, "province": "Barcelona", "provinceCode": "B", "zip": "08018"}}
{"address": {"address1": null, "address2": null, "city": "L'Hospitalet de Llobregat", "country": "Spain", "latitude": 41.3494786, "longitude": 2.1033017, "province": "Barcelona", "provinceCode": "B", "zip": "08907"}}
{"address": {"address1": "Gran Via de les Corts Catalanes 829", "address2": null, "city": "Barcelona", "country": "Spain", "latitude": 41.404641, "longitude": 2.1881307, "province": "Barcelona", "provinceCode": "B", "zip": "08018"}}
{"address": {"address1": "Carrer Josep Segura Farr\u00e9 713", "address2": null, "city": "Lleida", "country": "Spain", "latitude": 41.6282681, "longitude": 0.6638474, "province": "Lleida", "provinceCode": "L", "zip": "25191"}}
{"address": {"address1": "Carrer del Consell de Cent 589", "address2": null, "city": "Barcelona", "country": "Spain", "latitude": 41.4051019, "longitude": 2.1840108, "province": "Barcelona", "provinceCode": "B", "zip": "08013"}}
{"address": {"address1": "Avinguda de Jaume I 58", "address2": null, "city": "Pedreguer", "country": "Spain", "latitude": 38.7954513, "longitude": 0.0353166, "province": "Alicante", "provinceCode": "A", "zip": "03750"}}
{"address": {"address1": "Gran Via de les Corts Catalanes 644", "address2": null, "city": "Barcelona", "country": "Spain", "latitude": 41.389845, "longitude": 2.1700077, "province": "Barcelona", "provinceCode": "B", "zip": "08007"}}
{"address": {"address1": "Gran Via de les Corts Catalanes 583", "address2": null, "city": "Barcelona", "country": "Spain", "latitude": 41.385677, "longitude": 2.1626207, "province": "Barcelona", "provinceCode": "B", "zip": "08011"}}
{"address": {"address1": "Calle de Francisco Silvela 79", "address2": null, "city": "Madrid", "country": "Spain", "latitude": 40.4364893, "longitude": -3.6770211, "province": "Madrid", "provinceCode": "M", "zip": "28006"}}
{"address": {"address1": "Gran Via de les Corts Catalanes 663", "address2": null, "city": "Barcelona", "country": "Spain", "latitude": 41.3939621, "longitude": 2.1736547, "province": "Barcelona", "provinceCode": "B", "zip": "08010"}}
{"address": {"address1": "Calle del Pr\u00edncipe de Vergara 140", "address2": null, "city": "Madrid", "country": "Spain", "latitude": 40.4443421, "longitude": -3.6780613, "province": "Madrid", "provinceCode": "M", "zip": "28002"}}
{"address": {"address1": null, "address2": null, "city": "Torremolinos", "country": "Spain", "latitude": 36.6265566, "longitude": -4.5160396, "province": "M\u00e1laga", "provinceCode": "MA", "zip": "29620"}}
{"address": {"address1": "Calle Puerto del Nevero 948", "address2": null, "city": "Cotos de Monterrey", "country": "Spain", "latitude": 40.7909329, "longitude": -3.6114541, "province": "Madrid", "provinceCode": "M", "zip": "28729"}}
{"address": {"address1": "Gran Via de les Corts Catalanes 639", "address2": null, "city": "Barcelona", "country": "Spain", "latitude": 41.392169, "longitude": 2.1712361, "province": "Barcelona", "provinceCode": "B", "zip": "08010"}}
{"address": {"address1": "Gran Via de les Corts Catalanes 637", "address2": null, "city": "Barcelona", "country": "Spain", "latitude": 41.3920154, "longitude": 2.1710826, "province": "Barcelona", "provinceCode": "B", "zip": "08010"}}
{"address": {"address1": "Gran Via de les Corts Catalanes 651", "address2": null, "city": "Barcelona", "country": "Spain", "latitude": 41.3930521, "longitude": 2.1724008, "province": "Barcelona", "provinceCode": "B", "zip": "08010"}}
{"address": {"address1": "Calle de Bravo Murillo 376", "address2": null, "city": "Madrid", "country": "Spain", "latitude": 40.4650739, "longitude": -3.6927927, "province": "Madrid", "provinceCode": "M", "zip": "28020"}}
{"address": {"address1": "Gran Via de les Corts Catalanes 649", "address2": null, "city": "Barcelona", "country": "Spain", "latitude": 41.3928833, "longitude": 2.1722611, "province": "Barcelona", "provinceCode": "B", "zip": "08010"}}
{"address": {"address1": "Carrer de Sant Antoni Maria Claret 514", "address2": null, "city": "Barcelona", "country": "Spain", "latitude": 41.4216566, "longitude": 2.1888406, "province": "Barcelona", "provinceCode": "B", "zip": "08027"}}
{"address": {"address1": "Calle Puerto del Collado 926", "address2": null, "city": "Cotos de Monterrey", "country": "Spain", "latitude": 40.7897393, "longitude": -3.611508699999999, "province": "Madrid", "provinceCode": "M", "zip": "28729"}}
{"address": {"address1": "Gran Via de les Corts Catalanes 610", "address2": null, "city": "Barcelona", "country": "Spain", "latitude": 41.3873564, "longitude": 2.1660732, "province": "Barcelona", "provinceCode": "B", "zip": "08007"}}
{"address": {"address1": "Avinguda Diagonal 405", "address2": null, "city": "Barcelona", "country": "Spain", "latitude": 41.3952689, "longitude": 2.1561137, "province": "Barcelona", "provinceCode": "B", "zip": "08008"}}
{"address": {"address1": "Gran Via de les Corts Catalanes 750", "address2": null, "city": "Barcelona", "country": "Spain", "latitude": 41.3973895, "longitude": 2.1796248, "province": "Barcelona", "provinceCode": "B", "zip": "08013"}}
{"address": {"address1": "Calle de Francisco Silvela 57", "address2": null, "city": "Madrid", "country": "Spain", "latitude": 40.4340451, "longitude": -3.6742857, "province": "Madrid", "provinceCode": "M", "zip": "28028"}}
{"address": {"address1": "Gran Via de les Corts Catalanes 776", "address2": null, "city": "Barcelona", "country": "Spain", "latitude": 41.3986327, "longitude": 2.1810117, "province": "Barcelona", "provinceCode": "B", "zip": "08013"}}
{"address": {"address1": "Calle del Pr\u00edncipe de Vergara 246", "address2": null, "city": "Madrid", "country": "Spain", "latitude": 40.4532688, "longitude": -3.6755513, "province": "Madrid", "provinceCode": "M", "zip": "28016"}}
{"address": {"address1": "Carrer de Val\u00e8ncia 590", "address2": null, "city": "Barcelona", "country": "Spain", "latitude": 41.4084566, "longitude": 2.184513, "province": "Barcelona", "provinceCode": "B", "zip": "08026"}}
{"address": {"address1": "Gran Via de les Corts Catalanes 726", "address2": null, "city": "Barcelona", "country": "Spain", "latitude": 41.3966929, "longitude": 2.1784036, "province": "Barcelona", "provinceCode": "B", "zip": "08013"}}
{"address": {"address1": "Gran Via de les Corts Catalanes 654", "address2": null, "city": "Barcelona", "country": "Spain", "latitude": 41.3907531, "longitude": 2.1706027, "province": "Barcelona", "provinceCode": "B", "zip": "08010"}}
{"address": {"address1": "Carrer de la Diputaci\u00f3 237", "address2": null, "city": "Barcelona", "country": "Spain", "latitude": 41.3886214, "longitude": 2.1644522, "province": "Barcelona", "provinceCode": "B", "zip": "08007"}}
{"address": {"address1": "Gran Via de les Corts Catalanes 729", "address2": null, "city": "Barcelona", "country": "Spain", "latitude": 41.3983382, "longitude": 2.1796038, "province": "Barcelona", "provinceCode": "B", "zip": "08013"}}
{"address": {"address1": "Carrer de la Marina 227", "address2": null, "city": "Barcelona", "country": "Spain", "latitude": 41.4021317, "longitude": 2.1770523, "province": "Barcelona", "provinceCode": "B", "zip": "08013"}}
{"address": {"address1": "Carrer de Crist\u00f3bal de Moura 138", "address2": null, "city": "Barcelona", "country": "Spain", "latitude": 41.4126524, "longitude": 2.2090923, "province": "Barcelona", "provinceCode": "B", "zip": "08019"}}
{"address": {"address1": "Carrer de Roger de Ll\u00faria 118", "address2": null, "city": "Barcelona", "country": "Spain", "latitude": 41.3969971, "longitude": 2.1640965, "province": "Barcelona", "provinceCode": "B", "zip": "08037"}}
{"address": {"address1": "Carrer de los Castillejos 314", "address2": null, "city": "Barcelona", "country": "Spain", "latitude": 41.40902519999999, "longitude": 2.175247, "province": "Barcelona", "provinceCode": "B", "zip": "08025"}}
{"address": {"address1": null, "address2": null, "city": "Las Ventas de Retamosa", "country": "Spain", "latitude": 40.1582123, "longitude": -4.1462582, "province": "Toledo", "provinceCode": "TO", "zip": "45183"}}
{"address": {"address1": "Carrer del Riu X\u00faquer 43", "address2": null, "city": "Castell\u00f3 de la Plana", "country": "Spain", "latitude": 39.9776876, "longitude": -0.0573426, "province": "Castell\u00f3", "provinceCode": "CS", "zip": "12006"}}
{"address": {"address1": "Gran Via de les Corts Catalanes 930", "address2": null, "city": "Barcelona", "country": "Spain", "latitude": 41.40828, "longitude": 2.194248200000001, "province": "Barcelona", "provinceCode": "B", "zip": "08018"}}
{"address": {"address1": "Carrer de Val\u00e8ncia 342", "address2": null, "city": "Barcelona", "country": "Spain", "latitude": 41.3968814, "longitude": 2.1692208, "province": "Barcelona", "provinceCode": "B", "zip": "08009"}}
{"address": {"address1": "Carrer del Consell de Cent 221", "address2": null, "city": "Barcelona", "country": "Spain", "latitude": 41.38543809999999, "longitude": 2.157783, "province": "Barcelona", "provinceCode": "B", "zip": "08011"}}
{"address": {"address1": "Urbanizaci\u00f3n R\u00eca del Pas 816", "address2": null, "city": "Urbanizaci\u00f3n R\u00eda del Pas", "country": "Spain", "latitude": 43.4249545, "longitude": -3.9482367, "province": "Cantabria", "provinceCode": "S", "zip": "39478"}}
{"address": {"address1": "Carrer de Roger de Ll\u00faria 119", "address2": null, "city": "Barcelona", "country": "Spain", "latitude": 41.3963987, "longitude": 2.1643546, "province": "Barcelona", "provinceCode": "B", "zip": "08037"}}
{"address": {"address1": "Gran Via de les Corts Catalanes 600", "address2": null, "city": "Barcelona", "country": "Spain", "latitude": 41.3867322, "longitude": 2.165139700000001, "province": "Barcelona", "provinceCode": "B", "zip": "08007"}}
{"address": {"address1": "Calle del Puerto de Despe\u00f1aperros 807", "address2": null, "city": "Cotos de Monterrey", "country": "Spain", "latitude": 40.7896261, "longitude": -3.6031946, "province": "Madrid", "provinceCode": "M", "zip": "28729"}}
{"address": {"address1": "Calle del Pr\u00edncipe Carlos 17", "address2": null, "city": "Madrid", "country": "Spain", "latitude": 40.4920809, "longitude": -3.654358, "province": "Madrid", "provinceCode": "M", "zip": "28050"}}
{"address": {"address1": "Avinguda de Can Dom\u00e8nech 737", "address2": null, "city": "Cerdanyola del Vall\u00e8s", "country": "Spain", "latitude": 41.4981769, "longitude": 2.1057758, "province": "Barcelona", "provinceCode": "B", "zip": "08193"}}
{"address": {"address1": "Gran Via de les Corts Catalanes 677", "address2": null, "city": "Barcelona", "country": "Spain", "latitude": 41.3964218, "longitude": 2.1770139, "province": "Barcelona", "provinceCode": "B", "zip": "08013"}}
{"address": {"address1": null, "address2": null, "city": "Roda de Ber\u00e0", "country": "Spain", "latitude": 41.1862668, "longitude": 1.4579696, "province": "Tarragona", "provinceCode": "T", "zip": "43883"}}
